<?xml version="1.0" encoding="UTF-8"?>
<stations lastUpdate="1443816343874" version="2.0"><station><id>1</id><name>20th &amp; Bell St</name><terminalName>31000</terminalName><lastCommWithServer>1443816193178</lastCommWithServer><lat>38.8561</lat><long>-77.0512</long><installed>true</installed><locked>false</locked><installDate>0</installDate><removalDate></removalDate><temporary>false</temporary><public>true</public><nbBikes>6</nbBikes><nbEmptyDocks>5</nbEmptyDocks><latestUpdateTime>1443798413482</latestUpdateTime></station><station><id>2</id><name>18th &amp; Eads St.</name><terminalName>31001</terminalName><lastCommWithServer>1443816220028</lastCommWithServer><lat>38.85725</lat><long>-77.05332</long><installed>true</installed><locked>false</locked><installDate>0</installDate><removalDate></removalDate><temporary>false</temporary><public>true</public><nbBikes>6</nbBikes><nbEmptyDocks>5</nbEmptyDocks><latestUpdateTime>1443809056267</latestUpdateTime></station><station><id>3</id><name>20th &amp; Crystal Dr</name><terminalName>31002</terminalName><lastCommWithServer>1443816189245</lastCommWithServer><lat>38.856214</lat><long>-77.049828</long><installed>true</installed><locked>false</locked><installDate>0</installDate><removalDate></removalDate><temporary>false</temporary><public>true</public><nbBikes>6</nbBikes><nbEmptyDocks>9</nbEmptyDocks><latestUpdateTime>1443794122539</latestUpdateTime></station><station><id>4</id><name>15th &amp; Crystal Dr</name><terminalName>31003</terminalName><lastCommWithServer>1443816219340</lastCommWithServer><lat>38.86017</lat><long>-77.049593</long><installed>true</installed><locked>false</locked><installDate>0</installDate><removalDate></removalDate><temporary>false</temporary><public>true</public><nbBikes>3</nbBikes><nbEmptyDocks>8</nbEmptyDocks><latestUpdateTime>1443806398548</latestUpdateTime></station><station><id>5</id><name>Aurora Hills Community Ctr/18th &amp; Hayes St</name><terminalName>31004</terminalName><lastCommWithServer>1443816332088</lastCommWithServer><lat>38.857866</lat><long>-77.05949</long><installed>true</installed><locked>false</locked><installDate>0</installDate><removalDate></removalDate><temporary>false</temporary><public>true</public><nbBikes>5</nbBikes><nbEmptyDocks>6</nbEmptyDocks><latestUpdateTime>1443776625357</latestUpdateTime></station><station><id>6</id><name>Pentagon City Metro / 12th &amp; S Hayes St</name><terminalName>31005</terminalName><lastCommWithServer>1443816291508</lastCommWithServer><lat>38.862303</lat><long>-77.059936</long><installed>true</installed><locked>false</locked><installDate>0</installDate><removalDate></removalDate><temporary>false</temporary><public>true</public><nbBikes>7</nbBikes><nbEmptyDocks>11</nbEmptyDocks><latestUpdateTime>1443807336208</latestUpdateTime></station><station><id>7</id><name>S Joyce &amp; Army Navy Dr</name><terminalName>31006</terminalName><lastCommWithServer>1443816233543</lastCommWithServer><lat>38.8637</lat><long>-77.0633</long><installed>true</installed><locked>false</locked><installDate>0</installDate><removalDate></removalDate><temporary>false</temporary><public>true</public><nbBikes>10</nbBikes><nbEmptyDocks>5</nbEmptyDocks><latestUpdateTime>1443776581462</latestUpdateTime></station><station><id>8</id><name>Crystal City Metro / 18th &amp; Bell St</name><terminalName>31007</terminalName><lastCommWithServer>1443816190919</lastCommWithServer><lat>38.857063</lat><long>-77.051141</long><installed>true</installed><locked>false</locked><installDate>0</installDate><removalDate></removalDate><temporary>false</temporary><public>true</public><nbBikes>6</nbBikes><nbEmptyDocks>13</nbEmptyDocks><latestUpdateTime>1443810116511</latestUpdateTime></station><station><id>9</id><name>12th &amp; Army Navy Dr</name><terminalName>31008</terminalName><lastCommWithServer>1443816249560</lastCommWithServer><lat>38.8629</lat><long>-77.0528</long><installed>true</installed><locked>false</locked><installDate>0</installDate><removalDate></removalDate><temporary>false</temporary><public>true</public><nbBikes>3</nbBikes><nbEmptyDocks>8</nbEmptyDocks><latestUpdateTime>1443776452350</latestUpdateTime></station><station><id>10</id><name>27th &amp; Crystal Dr</name><terminalName>31009</terminalName><lastCommWithServer>1443816308805</lastCommWithServer><lat>38.848441</lat><long>-77.051516</long><installed>true</installed><locked>false</locked><installDate>0</installDate><removalDate></removalDate><temporary>false</temporary><public>true</public><nbBikes>14</nbBikes><nbEmptyDocks>5</nbEmptyDocks><latestUpdateTime>1443815101929</latestUpdateTime></station><station><id>11</id><name>S Glebe &amp; Potomac Ave</name><terminalName>31010</terminalName><lastCommWithServer>1443816305527</lastCommWithServer><lat>38.8426</lat><long>-77.0502</long><installed>true</installed><locked>false</locked><installDate>0</installDate><removalDate></removalDate><temporary>false</temporary><public>true</public><nbBikes>9</nbBikes><nbEmptyDocks>2</nbEmptyDocks><latestUpdateTime>1443803290426</latestUpdateTime></station><station><id>12</id><name>23rd &amp; Crystal Dr</name><terminalName>31011</terminalName><lastCommWithServer>1443816270003</lastCommWithServer><lat>38.8533</lat><long>-77.0498</long><installed>true</installed><locked>false</locked><installDate>0</installDate><removalDate></removalDate><temporary>false</temporary><public>true</public><nbBikes>6</nbBikes><nbEmptyDocks>11</nbEmptyDocks><latestUpdateTime>1443802104031</latestUpdateTime></station><station><id>13</id><name>26th &amp; S Clark St</name><terminalName>31012</terminalName><lastCommWithServer>1443816290623</lastCommWithServer><lat>38.850688</lat><long>-77.05152</long><installed>true</installed><locked>false</locked><installDate>0</installDate><removalDate></removalDate><temporary>false</temporary><public>true</public><nbBikes>3</nbBikes><nbEmptyDocks>8</nbEmptyDocks><latestUpdateTime>1443816170564</latestUpdateTime></station><station><id>14</id><name>19th St &amp; Pennsylvania Ave NW</name><terminalName>31100</terminalName><lastCommWithServer>1443816272686</lastCommWithServer><lat>38.9003</lat><long>-77.0429</long><installed>true</installed><locked>false</locked><installDate>0</installDate><removalDate></removalDate><temporary>false</temporary><public>true</public><nbBikes>14</nbBikes><nbEmptyDocks>1</nbEmptyDocks><latestUpdateTime>1443815124944</latestUpdateTime></station><station><id>15</id><name>14th &amp; V St NW</name><terminalName>31101</terminalName><lastCommWithServer>1443816262001</lastCommWithServer><lat>38.9176</lat><long>-77.0321</long><installed>true</installed><locked>false</locked><installDate>0</installDate><removalDate></removalDate><temporary>false</temporary><public>true</public><nbBikes>18</nbBikes><nbEmptyDocks>8</nbEmptyDocks><latestUpdateTime>1443813338324</latestUpdateTime></station><station><id>16</id><name>11th &amp; Kenyon St NW</name><terminalName>31102</terminalName><lastCommWithServer>1443816288986</lastCommWithServer><lat>38.929464</lat><long>-77.027822</long><installed>true</installed><locked>false</locked><installDate>0</installDate><removalDate></removalDate><temporary>false</temporary><public>true</public><nbBikes>17</nbBikes><nbEmptyDocks>10</nbEmptyDocks><latestUpdateTime>1443811104822</latestUpdateTime></station><station><id>17</id><name>16th &amp; Harvard St NW</name><terminalName>31103</terminalName><lastCommWithServer>1443816212267</lastCommWithServer><lat>38.926088</lat><long>-77.036536</long><installed>true</installed><locked>false</locked><installDate>0</installDate><removalDate></removalDate><temporary>false</temporary><public>true</public><nbBikes>18</nbBikes><nbEmptyDocks>15</nbEmptyDocks><latestUpdateTime>1443815399696</latestUpdateTime></station><station><id>18</id><name>Adams Mill &amp; Columbia Rd NW</name><terminalName>31104</terminalName><lastCommWithServer>1443816318071</lastCommWithServer><lat>38.922925</lat><long>-77.042581</long><installed>true</installed><locked>false</locked><installDate>0</installDate><removalDate></removalDate><temporary>false</temporary><public>true</public><nbBikes>3</nbBikes><nbEmptyDocks>12</nbEmptyDocks><latestUpdateTime>1443809317330</latestUpdateTime></station><station><id>19</id><name>14th &amp; Harvard St NW</name><terminalName>31105</terminalName><lastCommWithServer>1443816193312</lastCommWithServer><lat>38.9268</lat><long>-77.0322</long><installed>true</installed><locked>false</locked><installDate>0</installDate><removalDate></removalDate><temporary>false</temporary><public>true</public><nbBikes>11</nbBikes><nbEmptyDocks>7</nbEmptyDocks><latestUpdateTime>1443815003921</latestUpdateTime></station><station><id>20</id><name>Calvert &amp; Biltmore St NW</name><terminalName>31106</terminalName><lastCommWithServer>1443816333703</lastCommWithServer><lat>38.923203</lat><long>-77.047637</long><installed>true</installed><locked>false</locked><installDate>0</installDate><removalDate></removalDate><temporary>false</temporary><public>true</public><nbBikes>11</nbBikes><nbEmptyDocks>11</nbEmptyDocks><latestUpdateTime>1443797292007</latestUpdateTime></station><station><id>21</id><name>Lamont &amp; Mt Pleasant NW</name><terminalName>31107</terminalName><lastCommWithServer>1443816286701</lastCommWithServer><lat>38.9319</lat><long>-77.0388</long><installed>true</installed><locked>false</locked><installDate>0</installDate><removalDate></removalDate><temporary>false</temporary><public>true</public><nbBikes>8</nbBikes><nbEmptyDocks>11</nbEmptyDocks><latestUpdateTime>1443815133127</latestUpdateTime></station><station><id>22</id><name>4th &amp; M St SW</name><terminalName>31108</terminalName><lastCommWithServer>1443816331343</lastCommWithServer><lat>38.8767</lat><long>-77.0178</long><installed>true</installed><locked>false</locked><installDate>0</installDate><removalDate></removalDate><temporary>false</temporary><public>true</public><nbBikes>9</nbBikes><nbEmptyDocks>13</nbEmptyDocks><latestUpdateTime>1443814701011</latestUpdateTime></station><station><id>23</id><name>15th &amp; P St NW</name><terminalName>31201</terminalName><lastCommWithServer>1443816302957</lastCommWithServer><lat>38.90985</lat><long>-77.034438</long><installed>true</installed><locked>false</locked><installDate>0</installDate><removalDate></removalDate><temporary>false</temporary><public>true</public><nbBikes>5</nbBikes><nbEmptyDocks>13</nbEmptyDocks><latestUpdateTime>1443816133189</latestUpdateTime></station><station><id>24</id><name>14th &amp; R St NW</name><terminalName>31202</terminalName><lastCommWithServer>1443816285562</lastCommWithServer><lat>38.912682</lat><long>-77.031681</long><installed>true</installed><locked>false</locked><installDate>0</installDate><removalDate></removalDate><temporary>false</temporary><public>true</public><nbBikes>12</nbBikes><nbEmptyDocks>3</nbEmptyDocks><latestUpdateTime>1443816284949</latestUpdateTime></station><station><id>25</id><name>14th &amp; Rhode Island Ave NW</name><terminalName>31203</terminalName><lastCommWithServer>1443816221912</lastCommWithServer><lat>38.9086</lat><long>-77.0323</long><installed>true</installed><locked>false</locked><installDate>0</installDate><removalDate></removalDate><temporary>false</temporary><public>true</public><nbBikes>6</nbBikes><nbEmptyDocks>17</nbEmptyDocks><latestUpdateTime>1443815336508</latestUpdateTime></station><station><id>26</id><name>20th &amp; E St NW</name><terminalName>31204</terminalName><lastCommWithServer>1443816295941</lastCommWithServer><lat>38.8963</lat><long>-77.045</long><installed>true</installed><locked>false</locked><installDate>0</installDate><removalDate></removalDate><temporary>false</temporary><public>true</public><nbBikes>8</nbBikes><nbEmptyDocks>7</nbEmptyDocks><latestUpdateTime>1443809563851</latestUpdateTime></station><station><id>27</id><name>21st &amp; I St NW</name><terminalName>31205</terminalName><lastCommWithServer>1443816321998</lastCommWithServer><lat>38.9008</lat><long>-77.047</long><installed>true</installed><locked>false</locked><installDate>0</installDate><removalDate></removalDate><temporary>false</temporary><public>true</public><nbBikes>15</nbBikes><nbEmptyDocks>20</nbEmptyDocks><latestUpdateTime>1443813941328</latestUpdateTime></station><station><id>28</id><name>Georgia &amp; New Hampshire Ave NW</name><terminalName>31400</terminalName><lastCommWithServer>1443816181243</lastCommWithServer><lat>38.936043</lat><long>-77.024649</long><installed>true</installed><locked>false</locked><installDate>0</installDate><removalDate></removalDate><temporary>false</temporary><public>true</public><nbBikes>6</nbBikes><nbEmptyDocks>8</nbEmptyDocks><latestUpdateTime>1443809564891</latestUpdateTime></station><station><id>29</id><name>14th St &amp; Spring Rd NW</name><terminalName>31401</terminalName><lastCommWithServer>1443816312108</lastCommWithServer><lat>38.9375</lat><long>-77.0328</long><installed>true</installed><locked>false</locked><installDate>0</installDate><removalDate></removalDate><temporary>false</temporary><public>true</public><nbBikes>4</nbBikes><nbEmptyDocks>7</nbEmptyDocks><latestUpdateTime>1443795611820</latestUpdateTime></station><station><id>30</id><name>John McCormack Dr &amp; Michigan Ave NE</name><terminalName>31502</terminalName><lastCommWithServer>1443816247711</lastCommWithServer><lat>38.9346</lat><long>-76.9955</long><installed>true</installed><locked>false</locked><installDate>0</installDate><removalDate></removalDate><temporary>false</temporary><public>true</public><nbBikes>8</nbBikes><nbEmptyDocks>3</nbEmptyDocks><latestUpdateTime>1443808475405</latestUpdateTime></station><station><id>31</id><name>5th &amp; K St NW</name><terminalName>31600</terminalName><lastCommWithServer>1443816206855</lastCommWithServer><lat>38.90304</lat><long>-77.019027</long><installed>true</installed><locked>false</locked><installDate>0</installDate><removalDate></removalDate><temporary>false</temporary><public>true</public><nbBikes>10</nbBikes><nbEmptyDocks>9</nbEmptyDocks><latestUpdateTime>1443811158615</latestUpdateTime></station><station><id>32</id><name>19th &amp; East Capitol St SE</name><terminalName>31601</terminalName><lastCommWithServer>1443816273243</lastCommWithServer><lat>38.8896</lat><long>-76.9769</long><installed>true</installed><locked>false</locked><installDate>0</installDate><removalDate></removalDate><temporary>false</temporary><public>true</public><nbBikes>8</nbBikes><nbEmptyDocks>6</nbEmptyDocks><latestUpdateTime>1443812705541</latestUpdateTime></station><station><id>33</id><name>Park Rd &amp; Holmead Pl NW</name><terminalName>31602</terminalName><lastCommWithServer>1443816301994</lastCommWithServer><lat>38.9308</lat><long>-77.0315</long><installed>true</installed><locked>false</locked><installDate>0</installDate><removalDate></removalDate><temporary>false</temporary><public>true</public><nbBikes>6</nbBikes><nbEmptyDocks>12</nbEmptyDocks><latestUpdateTime>1443814380338</latestUpdateTime></station><station><id>34</id><name>Good Hope &amp; Naylor Rd SE</name><terminalName>31700</terminalName><lastCommWithServer>1443816323606</lastCommWithServer><lat>38.8601</lat><long>-76.9672</long><installed>true</installed><locked>false</locked><installDate>0</installDate><removalDate></removalDate><temporary>false</temporary><public>true</public><nbBikes>3</nbBikes><nbEmptyDocks>8</nbEmptyDocks><latestUpdateTime>1443800013526</latestUpdateTime></station><station><id>35</id><name>Connecticut Ave &amp; Newark St NW / Cleveland Park</name><terminalName>31305</terminalName><lastCommWithServer>1443816328805</lastCommWithServer><lat>38.934267</lat><long>-77.057979</long><installed>true</installed><locked>false</locked><installDate>0</installDate><removalDate></removalDate><temporary>false</temporary><public>true</public><nbBikes>8</nbBikes><nbEmptyDocks>3</nbEmptyDocks><latestUpdateTime>1443813288463</latestUpdateTime></station><station><id>36</id><name>Randle Circle &amp; Minnesota Ave SE</name><terminalName>31702</terminalName><lastCommWithServer>1443816201488</lastCommWithServer><lat>38.878</lat><long>-76.9607</long><installed>true</installed><locked>false</locked><installDate>0</installDate><removalDate></removalDate><temporary>false</temporary><public>true</public><nbBikes>5</nbBikes><nbEmptyDocks>6</nbEmptyDocks><latestUpdateTime>1443776449755</latestUpdateTime></station><station><id>37</id><name>Minnesota Ave Metro/DOES</name><terminalName>31703</terminalName><lastCommWithServer>1443816323261</lastCommWithServer><lat>38.897063</lat><long>-76.947446</long><installed>true</installed><locked>false</locked><installDate>0</installDate><removalDate></removalDate><temporary>false</temporary><public>true</public><nbBikes>6</nbBikes><nbEmptyDocks>5</nbEmptyDocks><latestUpdateTime>1443792753189</latestUpdateTime></station><station><id>38</id><name>Nannie Helen Burroughs &amp; Minnesota Ave NE</name><terminalName>31704</terminalName><lastCommWithServer>1443816197826</lastCommWithServer><lat>38.901385</lat><long>-76.941877</long><installed>true</installed><locked>false</locked><installDate>0</installDate><removalDate></removalDate><temporary>false</temporary><public>true</public><nbBikes>5</nbBikes><nbEmptyDocks>6</nbEmptyDocks><latestUpdateTime>1443776481169</latestUpdateTime></station><station><id>39</id><name>Anacostia Metro</name><terminalName>31801</terminalName><lastCommWithServer>1443816291213</lastCommWithServer><lat>38.862669</lat><long>-76.994637</long><installed>true</installed><locked>false</locked><installDate>0</installDate><removalDate></removalDate><temporary>false</temporary><public>true</public><nbBikes>6</nbBikes><nbEmptyDocks>5</nbEmptyDocks><latestUpdateTime>1443813561652</latestUpdateTime></station><station><id>40</id><name>Good Hope Rd &amp; MLK Ave SE</name><terminalName>31802</terminalName><lastCommWithServer>1443816193714</lastCommWithServer><lat>38.867373</lat><long>-76.988039</long><installed>true</installed><locked>false</locked><installDate>0</installDate><removalDate></removalDate><temporary>false</temporary><public>true</public><nbBikes>2</nbBikes><nbEmptyDocks>8</nbEmptyDocks><latestUpdateTime>1443801029706</latestUpdateTime></station><station><id>41</id><name>19th &amp; E Street NW</name><terminalName>31206</terminalName><lastCommWithServer>1443816323828</lastCommWithServer><lat>38.8952</lat><long>-77.0436</long><installed>true</installed><locked>false</locked><installDate>0</installDate><removalDate></removalDate><temporary>false</temporary><public>true</public><nbBikes>4</nbBikes><nbEmptyDocks>6</nbEmptyDocks><latestUpdateTime>1443814782603</latestUpdateTime></station><station><id>42</id><name>4th &amp; W St NE</name><terminalName>31500</terminalName><lastCommWithServer>1443816264207</lastCommWithServer><lat>38.919077</lat><long>-77.000648</long><installed>true</installed><locked>false</locked><installDate>0</installDate><removalDate></removalDate><temporary>false</temporary><public>true</public><nbBikes>10</nbBikes><nbEmptyDocks>4</nbEmptyDocks><latestUpdateTime>1443807259810</latestUpdateTime></station><station><id>43</id><name>10th &amp; U St NW</name><terminalName>31111</terminalName><lastCommWithServer>1443816331867</lastCommWithServer><lat>38.9172</lat><long>-77.0259</long><installed>true</installed><locked>false</locked><installDate>0</installDate><removalDate></removalDate><temporary>false</temporary><public>true</public><nbBikes>7</nbBikes><nbEmptyDocks>8</nbEmptyDocks><latestUpdateTime>1443798920710</latestUpdateTime></station><station><id>44</id><name>Georgia Ave and Fairmont St NW</name><terminalName>31207</terminalName><lastCommWithServer>1443816296048</lastCommWithServer><lat>38.9249</lat><long>-77.0222</long><installed>true</installed><locked>false</locked><installDate>0</installDate><removalDate></removalDate><temporary>false</temporary><public>true</public><nbBikes>7</nbBikes><nbEmptyDocks>4</nbEmptyDocks><latestUpdateTime>1443798740610</latestUpdateTime></station><station><id>45</id><name>1st &amp; N St  SE</name><terminalName>31209</terminalName><lastCommWithServer>1443816302238</lastCommWithServer><lat>38.8743</lat><long>-77.0057</long><installed>true</installed><locked>false</locked><installDate>0</installDate><removalDate></removalDate><temporary>false</temporary><public>true</public><nbBikes>3</nbBikes><nbEmptyDocks>36</nbEmptyDocks><latestUpdateTime>1443781545003</latestUpdateTime></station><station><id>46</id><name>20th St &amp; Florida Ave NW</name><terminalName>31110</terminalName><lastCommWithServer>1443816215508</lastCommWithServer><lat>38.9154</lat><long>-77.0446</long><installed>true</installed><locked>false</locked><installDate>0</installDate><removalDate></removalDate><temporary>false</temporary><public>true</public><nbBikes>1</nbBikes><nbEmptyDocks>13</nbEmptyDocks><latestUpdateTime>1443814817965</latestUpdateTime></station><station><id>47</id><name>7th &amp; T St NW</name><terminalName>31109</terminalName><lastCommWithServer>1443816181591</lastCommWithServer><lat>38.9155</lat><long>-77.0222</long><installed>true</installed><locked>false</locked><installDate>0</installDate><removalDate></removalDate><temporary>false</temporary><public>true</public><nbBikes>6</nbBikes><nbEmptyDocks>7</nbEmptyDocks><latestUpdateTime>1443813678471</latestUpdateTime></station><station><id>48</id><name>23rd &amp; Eads St</name><terminalName>31013</terminalName><lastCommWithServer>1443816292143</lastCommWithServer><lat>38.853531</lat><long>-77.053509</long><installed>true</installed><locked>false</locked><installDate>0</installDate><removalDate></removalDate><temporary>false</temporary><public>true</public><nbBikes>9</nbBikes><nbEmptyDocks>6</nbEmptyDocks><latestUpdateTime>1443802196040</latestUpdateTime></station><station><id>49</id><name>M St &amp; New Jersey Ave SE</name><terminalName>31208</terminalName><lastCommWithServer>1443816194365</lastCommWithServer><lat>38.8763</lat><long>-77.0037</long><installed>true</installed><locked>false</locked><installDate>0</installDate><removalDate></removalDate><temporary>false</temporary><public>true</public><nbBikes>7</nbBikes><nbEmptyDocks>10</nbEmptyDocks><latestUpdateTime>1443816011618</latestUpdateTime></station><station><id>51</id><name>Massachusetts Ave &amp; Dupont Circle NW</name><terminalName>31200</terminalName><lastCommWithServer>1443816332864</lastCommWithServer><lat>38.9101</lat><long>-77.0444</long><installed>true</installed><locked>false</locked><installDate>0</installDate><removalDate></removalDate><temporary>false</temporary><public>true</public><nbBikes>15</nbBikes><nbEmptyDocks>27</nbEmptyDocks><latestUpdateTime>1443815346745</latestUpdateTime></station><station><id>52</id><name>1st &amp; M St NE</name><terminalName>31603</terminalName><lastCommWithServer>1443816333326</lastCommWithServer><lat>38.9057</lat><long>-77.0056</long><installed>true</installed><locked>false</locked><installDate>0</installDate><removalDate></removalDate><temporary>false</temporary><public>true</public><nbBikes>8</nbBikes><nbEmptyDocks>6</nbEmptyDocks><latestUpdateTime>1443813447953</latestUpdateTime></station><station><id>53</id><name>21st &amp; M St NW</name><terminalName>31212</terminalName><lastCommWithServer>1443816336110</lastCommWithServer><lat>38.90534</lat><long>-77.046774</long><installed>true</installed><locked>false</locked><installDate>0</installDate><removalDate></removalDate><temporary>false</temporary><public>true</public><nbBikes>7</nbBikes><nbEmptyDocks>12</nbEmptyDocks><latestUpdateTime>1443816334538</latestUpdateTime></station><station><id>54</id><name>17th &amp; K St NW</name><terminalName>31213</terminalName><lastCommWithServer>1443816249922</lastCommWithServer><lat>38.90276</lat><long>-77.03863</long><installed>true</installed><locked>false</locked><installDate>0</installDate><removalDate></removalDate><temporary>false</temporary><public>true</public><nbBikes>8</nbBikes><nbEmptyDocks>15</nbEmptyDocks><latestUpdateTime>1443816248177</latestUpdateTime></station><station><id>55</id><name>3rd &amp; H St NW</name><terminalName>31604</terminalName><lastCommWithServer>1443816278598</lastCommWithServer><lat>38.899408</lat><long>-77.015289</long><installed>true</installed><locked>false</locked><installDate>0</installDate><removalDate></removalDate><temporary>false</temporary><public>true</public><nbBikes>10</nbBikes><nbEmptyDocks>5</nbEmptyDocks><latestUpdateTime>1443807298041</latestUpdateTime></station><station><id>56</id><name>3rd &amp; D St SE</name><terminalName>31605</terminalName><lastCommWithServer>1443816342597</lastCommWithServer><lat>38.8851</lat><long>-77.0023</long><installed>true</installed><locked>false</locked><installDate>0</installDate><removalDate></removalDate><temporary>false</temporary><public>true</public><nbBikes>8</nbBikes><nbEmptyDocks>2</nbEmptyDocks><latestUpdateTime>1443811479136</latestUpdateTime></station><station><id>57</id><name>Potomac &amp; Pennsylvania Ave SE</name><terminalName>31606</terminalName><lastCommWithServer>1443816221586</lastCommWithServer><lat>38.8803</lat><long>-76.9862</long><installed>true</installed><locked>false</locked><installDate>0</installDate><removalDate></removalDate><temporary>false</temporary><public>true</public><nbBikes>11</nbBikes><nbEmptyDocks>4</nbEmptyDocks><latestUpdateTime>1443813956886</latestUpdateTime></station><station><id>58</id><name>14th &amp; D St SE</name><terminalName>31607</terminalName><lastCommWithServer>1443816313791</lastCommWithServer><lat>38.884</lat><long>-76.9861</long><installed>true</installed><locked>false</locked><installDate>0</installDate><removalDate></removalDate><temporary>false</temporary><public>true</public><nbBikes>8</nbBikes><nbEmptyDocks>7</nbEmptyDocks><latestUpdateTime>1443799708077</latestUpdateTime></station><station><id>59</id><name>17th &amp; Corcoran St NW</name><terminalName>31214</terminalName><lastCommWithServer>1443816306621</lastCommWithServer><lat>38.9121</lat><long>-77.0387</long><installed>true</installed><locked>false</locked><installDate>0</installDate><removalDate></removalDate><temporary>false</temporary><public>true</public><nbBikes>14</nbBikes><nbEmptyDocks>4</nbEmptyDocks><latestUpdateTime>1443812124338</latestUpdateTime></station><station><id>60</id><name>Van Ness Metro / UDC</name><terminalName>31300</terminalName><lastCommWithServer>1443816271838</lastCommWithServer><lat>38.944551</lat><long>-77.063896</long><installed>true</installed><locked>false</locked><installDate>0</installDate><removalDate></removalDate><temporary>false</temporary><public>true</public><nbBikes>7</nbBikes><nbEmptyDocks>7</nbEmptyDocks><latestUpdateTime>1443811581602</latestUpdateTime></station><station><id>61</id><name>Florida Ave &amp; R St NW</name><terminalName>31503</terminalName><lastCommWithServer>1443816229218</lastCommWithServer><lat>38.9126</lat><long>-77.0135</long><installed>true</installed><locked>false</locked><installDate>0</installDate><removalDate></removalDate><temporary>false</temporary><public>true</public><nbBikes>8</nbBikes><nbEmptyDocks>7</nbEmptyDocks><latestUpdateTime>1443814516915</latestUpdateTime></station><station><id>62</id><name>8th &amp; Eye St SE / Barracks Row</name><terminalName>31608</terminalName><lastCommWithServer>1443816235746</lastCommWithServer><lat>38.8792</lat><long>-76.9953</long><installed>true</installed><locked>false</locked><installDate>0</installDate><removalDate></removalDate><temporary>false</temporary><public>true</public><nbBikes>2</nbBikes><nbEmptyDocks>9</nbEmptyDocks><latestUpdateTime>1443815390138</latestUpdateTime></station><station><id>63</id><name>Ward Circle / American University</name><terminalName>31301</terminalName><lastCommWithServer>1443816256145</lastCommWithServer><lat>38.938736</lat><long>-77.087171</long><installed>true</installed><locked>false</locked><installDate>0</installDate><removalDate></removalDate><temporary>false</temporary><public>true</public><nbBikes>11</nbBikes><nbEmptyDocks>4</nbEmptyDocks><latestUpdateTime>1443813300114</latestUpdateTime></station><station><id>64</id><name>Wisconsin Ave &amp; Newark St NW</name><terminalName>31302</terminalName><lastCommWithServer>1443816294401</lastCommWithServer><lat>38.934881</lat><long>-77.072755</long><installed>true</installed><locked>false</locked><installDate>0</installDate><removalDate></removalDate><temporary>false</temporary><public>true</public><nbBikes>10</nbBikes><nbEmptyDocks>6</nbEmptyDocks><latestUpdateTime>1443803663341</latestUpdateTime></station><station><id>65</id><name>14th St Heights / 14th &amp; Crittenden St NW</name><terminalName>31402</terminalName><lastCommWithServer>1443816251772</lastCommWithServer><lat>38.947774</lat><long>-77.032818</long><installed>true</installed><locked>false</locked><installDate>0</installDate><removalDate></removalDate><temporary>false</temporary><public>true</public><nbBikes>8</nbBikes><nbEmptyDocks>3</nbEmptyDocks><latestUpdateTime>1443812757967</latestUpdateTime></station><station><id>66</id><name>Anacostia Library</name><terminalName>31804</terminalName><lastCommWithServer>1443816335315</lastCommWithServer><lat>38.865784</lat><long>-76.9784</long><installed>true</installed><locked>false</locked><installDate>0</installDate><removalDate></removalDate><temporary>false</temporary><public>true</public><nbBikes>4</nbBikes><nbEmptyDocks>7</nbEmptyDocks><latestUpdateTime>1443800417707</latestUpdateTime></station><station><id>67</id><name>Pennsylvania &amp; Minnesota Ave SE</name><terminalName>31805</terminalName><lastCommWithServer>1443816339548</lastCommWithServer><lat>38.873057</lat><long>-76.971015</long><installed>true</installed><locked>false</locked><installDate>0</installDate><removalDate></removalDate><temporary>false</temporary><public>true</public><nbBikes>3</nbBikes><nbEmptyDocks>8</nbEmptyDocks><latestUpdateTime>1443782149716</latestUpdateTime></station><station><id>68</id><name>Eastern Market / 7th &amp; North Carolina Ave SE</name><terminalName>31610</terminalName><lastCommWithServer>1443816235140</lastCommWithServer><lat>38.886952</lat><long>-76.996806</long><installed>true</installed><locked>false</locked><installDate>0</installDate><removalDate></removalDate><temporary>false</temporary><public>true</public><nbBikes>3</nbBikes><nbEmptyDocks>11</nbEmptyDocks><latestUpdateTime>1443814320331</latestUpdateTime></station><station><id>69</id><name>14th St &amp; New York Ave NW</name><terminalName>31216</terminalName><lastCommWithServer>1443816331269</lastCommWithServer><lat>38.899632</lat><long>-77.031686</long><installed>true</installed><locked>false</locked><installDate>0</installDate><removalDate></removalDate><temporary>false</temporary><public>true</public><nbBikes>12</nbBikes><nbEmptyDocks>11</nbEmptyDocks><latestUpdateTime>1443815993464</latestUpdateTime></station><station><id>70</id><name>Benning Branch Library</name><terminalName>31705</terminalName><lastCommWithServer>1443816264744</lastCommWithServer><lat>38.894</lat><long>-76.947974</long><installed>true</installed><locked>false</locked><installDate>0</installDate><removalDate></removalDate><temporary>false</temporary><public>true</public><nbBikes>8</nbBikes><nbEmptyDocks>3</nbEmptyDocks><latestUpdateTime>1443776575890</latestUpdateTime></station><station><id>71</id><name>USDA / 12th &amp; Independence Ave SW</name><terminalName>31217</terminalName><lastCommWithServer>1443816289659</lastCommWithServer><lat>38.887237</lat><long>-77.028226</long><installed>true</installed><locked>false</locked><installDate>0</installDate><removalDate></removalDate><temporary>false</temporary><public>true</public><nbBikes>8</nbBikes><nbEmptyDocks>31</nbEmptyDocks><latestUpdateTime>1443814901424</latestUpdateTime></station><station><id>72</id><name>Georgetown Harbor / 30th St NW</name><terminalName>31215</terminalName><lastCommWithServer>1443816252164</lastCommWithServer><lat>38.9022212</lat><long>-77.059219</long><installed>true</installed><locked>false</locked><installDate>0</installDate><removalDate></removalDate><temporary>false</temporary><public>true</public><nbBikes>9</nbBikes><nbEmptyDocks>10</nbEmptyDocks><latestUpdateTime>1443815200384</latestUpdateTime></station><station><id>73</id><name>12th &amp; Newton St NE</name><terminalName>31501</terminalName><lastCommWithServer>1443816252927</lastCommWithServer><lat>38.933668</lat><long>-76.991016</long><installed>true</installed><locked>false</locked><installDate>0</installDate><removalDate></removalDate><temporary>false</temporary><public>true</public><nbBikes>6</nbBikes><nbEmptyDocks>5</nbEmptyDocks><latestUpdateTime>1443808707601</latestUpdateTime></station><station><id>74</id><name>US Dept of State / Virginia Ave &amp; 21st St NW</name><terminalName>31220</terminalName><lastCommWithServer>1443816253777</lastCommWithServer><lat>38.894919</lat><long>-77.046587</long><installed>true</installed><locked>false</locked><installDate>0</installDate><removalDate></removalDate><temporary>false</temporary><public>true</public><nbBikes>8</nbBikes><nbEmptyDocks>7</nbEmptyDocks><latestUpdateTime>1443795195476</latestUpdateTime></station><station><id>75</id><name>L'Enfant Plaza / 7th &amp; C St SW</name><terminalName>31218</terminalName><lastCommWithServer>1443816286018</lastCommWithServer><lat>38.886266</lat><long>-77.022241</long><installed>true</installed><locked>false</locked><installDate>0</installDate><removalDate></removalDate><temporary>false</temporary><public>true</public><nbBikes>2</nbBikes><nbEmptyDocks>11</nbEmptyDocks><latestUpdateTime>1443814203390</latestUpdateTime></station><station><id>76</id><name>10th St &amp; Constitution Ave NW</name><terminalName>31219</terminalName><lastCommWithServer>1443816247488</lastCommWithServer><lat>38.893028</lat><long>-77.026013</long><installed>true</installed><locked>false</locked><installDate>0</installDate><removalDate></removalDate><temporary>false</temporary><public>true</public><nbBikes>8</nbBikes><nbEmptyDocks>22</nbEmptyDocks><latestUpdateTime>1443810434644</latestUpdateTime></station><station><id>77</id><name>Kennedy Center</name><terminalName>31211</terminalName><lastCommWithServer>1443816335335</lastCommWithServer><lat>38.895184</lat><long>-77.054845</long><installed>true</installed><locked>false</locked><installDate>0</installDate><removalDate></removalDate><temporary>false</temporary><public>true</public><nbBikes>5</nbBikes><nbEmptyDocks>5</nbEmptyDocks><latestUpdateTime>1443795983940</latestUpdateTime></station><station><id>78</id><name>Eastern Market Metro / Pennsylvania Ave &amp; 7th St SE</name><terminalName>31613</terminalName><lastCommWithServer>1443816335520</lastCommWithServer><lat>38.884</lat><long>-76.995397</long><installed>true</installed><locked>false</locked><installDate>0</installDate><removalDate></removalDate><temporary>false</temporary><public>true</public><nbBikes>9</nbBikes><nbEmptyDocks>10</nbEmptyDocks><latestUpdateTime>1443815333856</latestUpdateTime></station><station><id>79</id><name>18th &amp; M St NW</name><terminalName>31221</terminalName><lastCommWithServer>1443816323930</lastCommWithServer><lat>38.904742</lat><long>-77.041606</long><installed>true</installed><locked>false</locked><installDate>0</installDate><removalDate></removalDate><temporary>false</temporary><public>true</public><nbBikes>5</nbBikes><nbEmptyDocks>14</nbEmptyDocks><latestUpdateTime>1443810821937</latestUpdateTime></station><station><id>80</id><name>Tenleytown / Wisconsin Ave &amp; Albemarle St NW</name><terminalName>31303</terminalName><lastCommWithServer>1443816202062</lastCommWithServer><lat>38.947607</lat><long>-77.079382</long><installed>true</installed><locked>false</locked><installDate>0</installDate><removalDate></removalDate><temporary>false</temporary><public>true</public><nbBikes>9</nbBikes><nbEmptyDocks>5</nbEmptyDocks><latestUpdateTime>1443813664357</latestUpdateTime></station><station><id>81</id><name>13th &amp; H St NE</name><terminalName>31611</terminalName><lastCommWithServer>1443816236111</lastCommWithServer><lat>38.9003</lat><long>-76.9882</long><installed>true</installed><locked>false</locked><installDate>0</installDate><removalDate></removalDate><temporary>false</temporary><public>true</public><nbBikes>16</nbBikes><nbEmptyDocks>11</nbEmptyDocks><latestUpdateTime>1443807989381</latestUpdateTime></station><station><id>82</id><name>5th &amp; F St NW</name><terminalName>31620</terminalName><lastCommWithServer>1443816195421</lastCommWithServer><lat>38.897222</lat><long>-77.019347</long><installed>true</installed><locked>false</locked><installDate>0</installDate><removalDate></removalDate><temporary>false</temporary><public>true</public><nbBikes>8</nbBikes><nbEmptyDocks>23</nbEmptyDocks><latestUpdateTime>1443813950684</latestUpdateTime></station><station><id>83</id><name>New York Ave &amp; 15th St NW</name><terminalName>31222</terminalName><lastCommWithServer>1443816229824</lastCommWithServer><lat>38.8991</lat><long>-77.0337</long><installed>true</installed><locked>false</locked><installDate>0</installDate><removalDate></removalDate><temporary>false</temporary><public>true</public><nbBikes>9</nbBikes><nbEmptyDocks>10</nbEmptyDocks><latestUpdateTime>1443816229045</latestUpdateTime></station><station><id>84</id><name>Convention Center / 7th &amp; M St NW</name><terminalName>31223</terminalName><lastCommWithServer>1443816287479</lastCommWithServer><lat>38.90572</lat><long>-77.022264</long><installed>true</installed><locked>false</locked><installDate>0</installDate><removalDate></removalDate><temporary>false</temporary><public>true</public><nbBikes>8</nbBikes><nbEmptyDocks>10</nbEmptyDocks><latestUpdateTime>1443815442791</latestUpdateTime></station><station><id>85</id><name>Harvard St &amp; Adams Mill Rd NW</name><terminalName>31112</terminalName><lastCommWithServer>1443816219279</lastCommWithServer><lat>38.927872</lat><long>-77.043358</long><installed>true</installed><locked>false</locked><installDate>0</installDate><removalDate></removalDate><temporary>false</temporary><public>true</public><nbBikes>7</nbBikes><nbEmptyDocks>7</nbEmptyDocks><latestUpdateTime>1443811533615</latestUpdateTime></station><station><id>86</id><name>19th &amp; L St NW</name><terminalName>31224</terminalName><lastCommWithServer>1443816287284</lastCommWithServer><lat>38.903407</lat><long>-77.043648</long><installed>true</installed><locked>false</locked><installDate>0</installDate><removalDate></removalDate><temporary>false</temporary><public>true</public><nbBikes>6</nbBikes><nbEmptyDocks>9</nbEmptyDocks><latestUpdateTime>1443814960172</latestUpdateTime></station><station><id>87</id><name>C &amp; O Canal &amp; Wisconsin Ave NW</name><terminalName>31225</terminalName><lastCommWithServer>1443816342688</lastCommWithServer><lat>38.90375</lat><long>-77.06269</long><installed>true</installed><locked>false</locked><installDate>0</installDate><removalDate></removalDate><temporary>false</temporary><public>true</public><nbBikes>8</nbBikes><nbEmptyDocks>13</nbEmptyDocks><latestUpdateTime>1443814036089</latestUpdateTime></station><station><id>88</id><name>6th &amp; Water St SW / SW Waterfront</name><terminalName>31609</terminalName><lastCommWithServer>1443816290453</lastCommWithServer><lat>38.87675</lat><long>-77.02127</long><installed>true</installed><locked>false</locked><installDate>0</installDate><removalDate></removalDate><temporary>false</temporary><public>true</public><nbBikes>8</nbBikes><nbEmptyDocks>10</nbEmptyDocks><latestUpdateTime>1443792941317</latestUpdateTime></station><station><id>89</id><name>D St &amp; Maryland Ave NE</name><terminalName>31612</terminalName><lastCommWithServer>1443816249595</lastCommWithServer><lat>38.894758</lat><long>-76.997114</long><installed>true</installed><locked>false</locked><installDate>0</installDate><removalDate></removalDate><temporary>false</temporary><public>true</public><nbBikes>8</nbBikes><nbEmptyDocks>13</nbEmptyDocks><latestUpdateTime>1443816248219</latestUpdateTime></station><station><id>90</id><name>34th St &amp; Wisconsin Ave NW</name><terminalName>31226</terminalName><lastCommWithServer>1443816252093</lastCommWithServer><lat>38.916442</lat><long>-77.0682</long><installed>true</installed><locked>false</locked><installDate>0</installDate><removalDate></removalDate><temporary>false</temporary><public>true</public><nbBikes>4</nbBikes><nbEmptyDocks>6</nbEmptyDocks><latestUpdateTime>1443808168559</latestUpdateTime></station><station><id>91</id><name>13th St &amp; New York Ave NW</name><terminalName>31227</terminalName><lastCommWithServer>1443816213586</lastCommWithServer><lat>38.900283</lat><long>-77.029822</long><installed>true</installed><locked>false</locked><installDate>0</installDate><removalDate></removalDate><temporary>false</temporary><public>true</public><nbBikes>10</nbBikes><nbEmptyDocks>10</nbEmptyDocks><latestUpdateTime>1443815889936</latestUpdateTime></station><station><id>92</id><name>8th &amp; H St NW</name><terminalName>31228</terminalName><lastCommWithServer>1443816231280</lastCommWithServer><lat>38.8997</lat><long>-77.023086</long><installed>true</installed><locked>false</locked><installDate>0</installDate><removalDate></removalDate><temporary>false</temporary><public>true</public><nbBikes>17</nbBikes><nbEmptyDocks>11</nbEmptyDocks><latestUpdateTime>1443816230186</latestUpdateTime></station><station><id>93</id><name>10th &amp; Monroe St NE</name><terminalName>31504</terminalName><lastCommWithServer>1443816182474</lastCommWithServer><lat>38.932514</lat><long>-76.992889</long><installed>true</installed><locked>false</locked><installDate>0</installDate><removalDate></removalDate><temporary>false</temporary><public>true</public><nbBikes>5</nbBikes><nbEmptyDocks>6</nbEmptyDocks><latestUpdateTime>1443776524883</latestUpdateTime></station><station><id>94</id><name>Eckington Pl &amp; Q St NE</name><terminalName>31505</terminalName><lastCommWithServer>1443816225919</lastCommWithServer><lat>38.910972</lat><long>-77.00495</long><installed>true</installed><locked>false</locked><installDate>0</installDate><removalDate></removalDate><temporary>false</temporary><public>true</public><nbBikes>5</nbBikes><nbEmptyDocks>5</nbEmptyDocks><latestUpdateTime>1443815592380</latestUpdateTime></station><station><id>95</id><name>6th &amp; H St NE</name><terminalName>31615</terminalName><lastCommWithServer>1443816224394</lastCommWithServer><lat>38.899972</lat><long>-76.998347</long><installed>true</installed><locked>false</locked><installDate>0</installDate><removalDate></removalDate><temporary>false</temporary><public>true</public><nbBikes>14</nbBikes><nbEmptyDocks>9</nbEmptyDocks><latestUpdateTime>1443808452983</latestUpdateTime></station><station><id>96</id><name>3rd &amp; H St NE</name><terminalName>31616</terminalName><lastCommWithServer>1443816314281</lastCommWithServer><lat>38.900412</lat><long>-77.001949</long><installed>true</installed><locked>false</locked><installDate>0</installDate><removalDate></removalDate><temporary>false</temporary><public>true</public><nbBikes>13</nbBikes><nbEmptyDocks>6</nbEmptyDocks><latestUpdateTime>1443812689992</latestUpdateTime></station><station><id>97</id><name>Bladensburg Rd &amp; Benning Rd NE</name><terminalName>31617</terminalName><lastCommWithServer>1443816270287</lastCommWithServer><lat>38.900413</lat><long>-76.982872</long><installed>true</installed><locked>false</locked><installDate>0</installDate><removalDate></removalDate><temporary>false</temporary><public>true</public><nbBikes>11</nbBikes><nbEmptyDocks>4</nbEmptyDocks><latestUpdateTime>1443796090613</latestUpdateTime></station><station><id>98</id><name>4th &amp; East Capitol St NE</name><terminalName>31618</terminalName><lastCommWithServer>1443816201848</lastCommWithServer><lat>38.889955</lat><long>-77.000349</long><installed>true</installed><locked>false</locked><installDate>0</installDate><removalDate></removalDate><temporary>false</temporary><public>true</public><nbBikes>7</nbBikes><nbEmptyDocks>3</nbEmptyDocks><latestUpdateTime>1443813985117</latestUpdateTime></station><station><id>99</id><name>Lincoln Park / 13th &amp; East Capitol St NE </name><terminalName>31619</terminalName><lastCommWithServer>1443816193535</lastCommWithServer><lat>38.890461</lat><long>-76.988355</long><installed>true</installed><locked>false</locked><installDate>0</installDate><removalDate></removalDate><temporary>false</temporary><public>true</public><nbBikes>14</nbBikes><nbEmptyDocks>9</nbEmptyDocks><latestUpdateTime>1443812833311</latestUpdateTime></station><station><id>100</id><name>Branch &amp; Pennsylvania Ave SE</name><terminalName>31701</terminalName><lastCommWithServer>1443816335401</lastCommWithServer><lat>38.8692</lat><long>-76.9599</long><installed>true</installed><locked>false</locked><installDate>0</installDate><removalDate></removalDate><temporary>false</temporary><public>true</public><nbBikes>4</nbBikes><nbEmptyDocks>7</nbEmptyDocks><latestUpdateTime>1443799133018</latestUpdateTime></station><station><id>101</id><name>13th &amp; D St NE</name><terminalName>31622</terminalName><lastCommWithServer>1443816188971</lastCommWithServer><lat>38.894832</lat><long>-76.987633</long><installed>true</installed><locked>false</locked><installDate>0</installDate><removalDate></removalDate><temporary>false</temporary><public>true</public><nbBikes>16</nbBikes><nbEmptyDocks>15</nbEmptyDocks><latestUpdateTime>1443816188016</latestUpdateTime></station><station><id>102</id><name>New Hampshire Ave &amp; T St NW</name><terminalName>31229</terminalName><lastCommWithServer>1443816260279</lastCommWithServer><lat>38.91554</lat><long>-77.03818</long><installed>true</installed><locked>false</locked><installDate>0</installDate><removalDate></removalDate><temporary>false</temporary><public>true</public><nbBikes>8</nbBikes><nbEmptyDocks>15</nbEmptyDocks><latestUpdateTime>1443815577272</latestUpdateTime></station><station><id>103</id><name>Metro Center / 12th &amp; G St NW</name><terminalName>31230</terminalName><lastCommWithServer>1443816282167</lastCommWithServer><lat>38.898364</lat><long>-77.027869</long><installed>true</installed><locked>false</locked><installDate>0</installDate><removalDate></removalDate><temporary>false</temporary><public>true</public><nbBikes>8</nbBikes><nbEmptyDocks>23</nbEmptyDocks><latestUpdateTime>1443816043504</latestUpdateTime></station><station><id>104</id><name>14th &amp; D St NW / Ronald Reagan Building</name><terminalName>31231</terminalName><lastCommWithServer>1443816328839</lastCommWithServer><lat>38.894514</lat><long>-77.031617</long><installed>true</installed><locked>false</locked><installDate>0</installDate><removalDate></removalDate><temporary>false</temporary><public>true</public><nbBikes>5</nbBikes><nbEmptyDocks>20</nbEmptyDocks><latestUpdateTime>1443814612630</latestUpdateTime></station><station><id>105</id><name>7th &amp; F St NW / National Portrait Gallery</name><terminalName>31232</terminalName><lastCommWithServer>1443816196811</lastCommWithServer><lat>38.897324</lat><long>-77.022322</long><installed>true</installed><locked>false</locked><installDate>0</installDate><removalDate></removalDate><temporary>false</temporary><public>true</public><nbBikes>10</nbBikes><nbEmptyDocks>16</nbEmptyDocks><latestUpdateTime>1443814400099</latestUpdateTime></station><station><id>106</id><name>17th &amp; K St NW / Farragut Square</name><terminalName>31233</terminalName><lastCommWithServer>1443816298417</lastCommWithServer><lat>38.902061</lat><long>-77.038322</long><installed>true</installed><locked>false</locked><installDate>0</installDate><removalDate></removalDate><temporary>false</temporary><public>true</public><nbBikes>7</nbBikes><nbEmptyDocks>27</nbEmptyDocks><latestUpdateTime>1443815811960</latestUpdateTime></station><station><id>107</id><name>20th &amp; O St NW / Dupont South</name><terminalName>31234</terminalName><lastCommWithServer>1443816314304</lastCommWithServer><lat>38.908905</lat><long>-77.04478</long><installed>true</installed><locked>false</locked><installDate>0</installDate><removalDate></removalDate><temporary>false</temporary><public>true</public><nbBikes>8</nbBikes><nbEmptyDocks>9</nbEmptyDocks><latestUpdateTime>1443814480379</latestUpdateTime></station><station><id>108</id><name>4th &amp; D St NW / Judiciary Square</name><terminalName>31621</terminalName><lastCommWithServer>1443816326756</lastCommWithServer><lat>38.895344</lat><long>-77.016106</long><installed>true</installed><locked>false</locked><installDate>0</installDate><removalDate></removalDate><temporary>false</temporary><public>true</public><nbBikes>6</nbBikes><nbEmptyDocks>9</nbEmptyDocks><latestUpdateTime>1443797323368</latestUpdateTime></station><station><id>109</id><name>19th St &amp; Constitution Ave NW</name><terminalName>31235</terminalName><lastCommWithServer>1443816216499</lastCommWithServer><lat>38.8923</lat><long>-77.0436</long><installed>true</installed><locked>false</locked><installDate>0</installDate><removalDate></removalDate><temporary>false</temporary><public>true</public><nbBikes>5</nbBikes><nbEmptyDocks>29</nbEmptyDocks><latestUpdateTime>1443796556355</latestUpdateTime></station><station><id>110</id><name>37th &amp; O St NW / Georgetown University</name><terminalName>31236</terminalName><lastCommWithServer>1443816306489</lastCommWithServer><lat>38.90774</lat><long>-77.071652</long><installed>true</installed><locked>false</locked><installDate>0</installDate><removalDate></removalDate><temporary>false</temporary><public>true</public><nbBikes>5</nbBikes><nbEmptyDocks>17</nbEmptyDocks><latestUpdateTime>1443814602536</latestUpdateTime></station><station><id>111</id><name>11th &amp; H St NE</name><terminalName>31614</terminalName><lastCommWithServer>1443816325446</lastCommWithServer><lat>38.899983</lat><long>-76.991383</long><installed>true</installed><locked>false</locked><installDate>0</installDate><removalDate></removalDate><temporary>false</temporary><public>true</public><nbBikes>12</nbBikes><nbEmptyDocks>7</nbEmptyDocks><latestUpdateTime>1443815320869</latestUpdateTime></station><station><id>112</id><name>25th St &amp; Pennsylvania Ave NW</name><terminalName>31237</terminalName><lastCommWithServer>1443816269805</lastCommWithServer><lat>38.903827</lat><long>-77.053485</long><installed>true</installed><locked>false</locked><installDate>0</installDate><removalDate></removalDate><temporary>false</temporary><public>true</public><nbBikes>4</nbBikes><nbEmptyDocks>10</nbEmptyDocks><latestUpdateTime>1443813294334</latestUpdateTime></station><station><id>113</id><name>Columbus Circle / Union Station</name><terminalName>31623</terminalName><lastCommWithServer>1443816337217</lastCommWithServer><lat>38.89696</lat><long>-77.00493</long><installed>true</installed><locked>false</locked><installDate>0</installDate><removalDate></removalDate><temporary>false</temporary><public>true</public><nbBikes>6</nbBikes><nbEmptyDocks>31</nbEmptyDocks><latestUpdateTime>1443816336345</latestUpdateTime></station><station><id>114</id><name>North Capitol St &amp; F St NW</name><terminalName>31624</terminalName><lastCommWithServer>1443816285802</lastCommWithServer><lat>38.897446</lat><long>-77.009888</long><installed>true</installed><locked>false</locked><installDate>0</installDate><removalDate></removalDate><temporary>false</temporary><public>true</public><nbBikes>3</nbBikes><nbEmptyDocks>20</nbEmptyDocks><latestUpdateTime>1443816117438</latestUpdateTime></station><station><id>115</id><name>11th &amp; M St NW</name><terminalName>31266</terminalName><lastCommWithServer>1443816311166</lastCommWithServer><lat>38.905607</lat><long>-77.027137</long><installed>true</installed><locked>false</locked><installDate>0</installDate><removalDate></removalDate><temporary>false</temporary><public>true</public><nbBikes>1</nbBikes><nbEmptyDocks>16</nbEmptyDocks><latestUpdateTime>1443815718266</latestUpdateTime></station><station><id>116</id><name>36th &amp; Calvert St NW / Glover Park</name><terminalName>31304</terminalName><lastCommWithServer>1443816327464</lastCommWithServer><lat>38.922581</lat><long>-77.070334</long><installed>true</installed><locked>false</locked><installDate>0</installDate><removalDate></removalDate><temporary>false</temporary><public>true</public><nbBikes>9</nbBikes><nbEmptyDocks>6</nbEmptyDocks><latestUpdateTime>1443804711560</latestUpdateTime></station><station><id>117</id><name>14th &amp; G St NW</name><terminalName>31238</terminalName><lastCommWithServer>1443816243173</lastCommWithServer><lat>38.898069</lat><long>-77.031823</long><installed>true</installed><locked>false</locked><installDate>0</installDate><removalDate></removalDate><temporary>false</temporary><public>true</public><nbBikes>11</nbBikes><nbEmptyDocks>12</nbEmptyDocks><latestUpdateTime>1443812552291</latestUpdateTime></station><station><id>118</id><name>Potomac Ave &amp; 35th St S</name><terminalName>31052</terminalName><lastCommWithServer>1443816331409</lastCommWithServer><lat>38.844015</lat><long>-77.050537</long><installed>true</installed><locked>false</locked><installDate>0</installDate><removalDate></removalDate><temporary>false</temporary><public>true</public><nbBikes>12</nbBikes><nbEmptyDocks>11</nbEmptyDocks><latestUpdateTime>1443809292645</latestUpdateTime></station><station><id>124</id><name>Ohio Dr &amp; West Basin Dr SW / MLK &amp; FDR Memorials</name><terminalName>31240</terminalName><lastCommWithServer>1443816222177</lastCommWithServer><lat>38.88412</lat><long>-77.04657</long><installed>true</installed><locked>false</locked><installDate>0</installDate><removalDate></removalDate><temporary>false</temporary><public>true</public><nbBikes>4</nbBikes><nbEmptyDocks>18</nbEmptyDocks><latestUpdateTime>1443801319610</latestUpdateTime></station><station><id>125</id><name>11th &amp; F St NW</name><terminalName>31262</terminalName><lastCommWithServer>1443816314385</lastCommWithServer><lat>38.897857</lat><long>-77.026975</long><installed>true</installed><locked>false</locked><installDate>0</installDate><removalDate></removalDate><temporary>false</temporary><public>true</public><nbBikes>6</nbBikes><nbEmptyDocks>9</nbEmptyDocks><latestUpdateTime>1443804694426</latestUpdateTime></station><station><id>126</id><name>23rd &amp; E St NW </name><terminalName>31260</terminalName><lastCommWithServer>1443816285000</lastCommWithServer><lat>38.896104</lat><long>-77.049882</long><installed>true</installed><locked>false</locked><installDate>0</installDate><removalDate></removalDate><temporary>false</temporary><public>true</public><nbBikes>8</nbBikes><nbEmptyDocks>11</nbEmptyDocks><latestUpdateTime>1443810906038</latestUpdateTime></station><station><id>127</id><name>Lynn &amp; 19th St North</name><terminalName>31014</terminalName><lastCommWithServer>1443816249288</lastCommWithServer><lat>38.897315</lat><long>-77.070993</long><installed>true</installed><locked>false</locked><installDate>0</installDate><removalDate></removalDate><temporary>false</temporary><public>true</public><nbBikes>10</nbBikes><nbEmptyDocks>17</nbEmptyDocks><latestUpdateTime>1443807288150</latestUpdateTime></station><station><id>128</id><name>Rosslyn Metro / Wilson Blvd &amp; Ft Myer Dr</name><terminalName>31015</terminalName><lastCommWithServer>1443816319370</lastCommWithServer><lat>38.8946</lat><long>-77.072305</long><installed>true</installed><locked>false</locked><installDate>0</installDate><removalDate></removalDate><temporary>false</temporary><public>true</public><nbBikes>8</nbBikes><nbEmptyDocks>5</nbEmptyDocks><latestUpdateTime>1443805938368</latestUpdateTime></station><station><id>129</id><name>Clarendon Blvd &amp; Pierce St</name><terminalName>31016</terminalName><lastCommWithServer>1443816324375</lastCommWithServer><lat>38.893648</lat><long>-77.076701</long><installed>true</installed><locked>false</locked><installDate>0</installDate><removalDate></removalDate><temporary>false</temporary><public>true</public><nbBikes>1</nbBikes><nbEmptyDocks>9</nbEmptyDocks><latestUpdateTime>1443815353864</latestUpdateTime></station><station><id>130</id><name>Wilson Blvd &amp; N Uhle St</name><terminalName>31017</terminalName><lastCommWithServer>1443816284650</lastCommWithServer><lat>38.891696</lat><long>-77.0846</long><installed>true</installed><locked>false</locked><installDate>0</installDate><removalDate></removalDate><temporary>false</temporary><public>true</public><nbBikes>2</nbBikes><nbEmptyDocks>12</nbEmptyDocks><latestUpdateTime>1443792140899</latestUpdateTime></station><station><id>131</id><name>N Rhodes &amp; 16th St N</name><terminalName>31018</terminalName><lastCommWithServer>1443816290844</lastCommWithServer><lat>38.892164</lat><long>-77.079375</long><installed>true</installed><locked>false</locked><installDate>0</installDate><removalDate></removalDate><temporary>false</temporary><public>true</public><nbBikes>4</nbBikes><nbEmptyDocks>6</nbEmptyDocks><latestUpdateTime>1443815962439</latestUpdateTime></station><station><id>132</id><name>Fairfax Village</name><terminalName>31706</terminalName><lastCommWithServer>1443816319067</lastCommWithServer><lat>38.86559</lat><long>-76.952103</long><installed>true</installed><locked>false</locked><installDate>0</installDate><removalDate></removalDate><temporary>false</temporary><public>true</public><nbBikes>1</nbBikes><nbEmptyDocks>14</nbEmptyDocks><latestUpdateTime>1443798842878</latestUpdateTime></station><station><id>133</id><name>21st St &amp; Constitution Ave NW</name><terminalName>31261</terminalName><lastCommWithServer>1443816234920</lastCommWithServer><lat>38.892459</lat><long>-77.046567</long><installed>true</installed><locked>false</locked><installDate>0</installDate><removalDate></removalDate><temporary>false</temporary><public>true</public><nbBikes>5</nbBikes><nbEmptyDocks>10</nbEmptyDocks><latestUpdateTime>1443795447391</latestUpdateTime></station><station><id>134</id><name>Wilson Blvd &amp; N Edgewood St</name><terminalName>31019</terminalName><lastCommWithServer>1443816303836</lastCommWithServer><lat>38.889</lat><long>-77.0925</long><installed>true</installed><locked>false</locked><installDate>0</installDate><removalDate></removalDate><temporary>false</temporary><public>true</public><nbBikes>10</nbBikes><nbEmptyDocks>5</nbEmptyDocks><latestUpdateTime>1443800311645</latestUpdateTime></station><station><id>135</id><name>Columbia Rd &amp; Belmont St NW</name><terminalName>31113</terminalName><lastCommWithServer>1443816293409</lastCommWithServer><lat>38.920669</lat><long>-77.04368</long><installed>true</installed><locked>false</locked><installDate>0</installDate><removalDate></removalDate><temporary>false</temporary><public>true</public><nbBikes>11</nbBikes><nbEmptyDocks>8</nbEmptyDocks><latestUpdateTime>1443815737532</latestUpdateTime></station><station><id>136</id><name>17th &amp; Rhode Island Ave NW</name><terminalName>31239</terminalName><lastCommWithServer>1443816287734</lastCommWithServer><lat>38.906602</lat><long>-77.038785</long><installed>true</installed><locked>false</locked><installDate>0</installDate><removalDate></removalDate><temporary>false</temporary><public>true</public><nbBikes>10</nbBikes><nbEmptyDocks>13</nbEmptyDocks><latestUpdateTime>1443813031488</latestUpdateTime></station><station><id>137</id><name>Thomas Circle</name><terminalName>31241</terminalName><lastCommWithServer>1443816250212</lastCommWithServer><lat>38.9059</lat><long>-77.0325</long><installed>true</installed><locked>false</locked><installDate>0</installDate><removalDate></removalDate><temporary>false</temporary><public>true</public><nbBikes>1</nbBikes><nbEmptyDocks>31</nbEmptyDocks><latestUpdateTime>1443816249372</latestUpdateTime></station><station><id>138</id><name>Wilson Blvd &amp; Franklin Rd</name><terminalName>31020</terminalName><lastCommWithServer>1443816269324</lastCommWithServer><lat>38.8904</lat><long>-77.0889</long><installed>true</installed><locked>false</locked><installDate>0</installDate><removalDate></removalDate><temporary>false</temporary><public>true</public><nbBikes>5</nbBikes><nbEmptyDocks>6</nbEmptyDocks><latestUpdateTime>1443788647866</latestUpdateTime></station><station><id>139</id><name>Clarendon Blvd &amp; N Fillmore St</name><terminalName>31021</terminalName><lastCommWithServer>1443816300775</lastCommWithServer><lat>38.8881</lat><long>-77.09308</long><installed>true</installed><locked>false</locked><installDate>0</installDate><removalDate></removalDate><temporary>false</temporary><public>true</public><nbBikes>4</nbBikes><nbEmptyDocks>11</nbEmptyDocks><latestUpdateTime>1443815698368</latestUpdateTime></station><station><id>140</id><name>Clarendon Metro / Wilson Blvd &amp; N Highland St</name><terminalName>31022</terminalName><lastCommWithServer>1443816295936</lastCommWithServer><lat>38.88786</lat><long>-77.094875</long><installed>true</installed><locked>false</locked><installDate>0</installDate><removalDate></removalDate><temporary>false</temporary><public>true</public><nbBikes>5</nbBikes><nbEmptyDocks>12</nbEmptyDocks><latestUpdateTime>1443798302180</latestUpdateTime></station><station><id>141</id><name>18th St &amp; Pennsylvania Ave NW</name><terminalName>31242</terminalName><lastCommWithServer>1443816317921</lastCommWithServer><lat>38.89968</lat><long>-77.041539</long><installed>true</installed><locked>false</locked><installDate>0</installDate><removalDate></removalDate><temporary>false</temporary><public>true</public><nbBikes>0</nbBikes><nbEmptyDocks>26</nbEmptyDocks><latestUpdateTime>1443813821923</latestUpdateTime></station><station><id>142</id><name>Maryland &amp; Independence Ave SW</name><terminalName>31243</terminalName><lastCommWithServer>1443816234524</lastCommWithServer><lat>38.887299</lat><long>-77.018939</long><installed>true</installed><locked>false</locked><installDate>0</installDate><removalDate></removalDate><temporary>false</temporary><public>true</public><nbBikes>5</nbBikes><nbEmptyDocks>34</nbEmptyDocks><latestUpdateTime>1443815237261</latestUpdateTime></station><station><id>143</id><name>4th &amp; E St SW</name><terminalName>31244</terminalName><lastCommWithServer>1443816233250</lastCommWithServer><lat>38.88412</lat><long>-77.017445</long><installed>true</installed><locked>false</locked><installDate>0</installDate><removalDate></removalDate><temporary>false</temporary><public>true</public><nbBikes>3</nbBikes><nbEmptyDocks>16</nbEmptyDocks><latestUpdateTime>1443815728452</latestUpdateTime></station><station><id>144</id><name>3rd &amp; G St SE</name><terminalName>31625</terminalName><lastCommWithServer>1443816272606</lastCommWithServer><lat>38.881185</lat><long>-77.001828</long><installed>true</installed><locked>false</locked><installDate>0</installDate><removalDate></removalDate><temporary>false</temporary><public>true</public><nbBikes>11</nbBikes><nbEmptyDocks>8</nbEmptyDocks><latestUpdateTime>1443790292181</latestUpdateTime></station><station><id>145</id><name>7th &amp; R St NW / Shaw Library</name><terminalName>31245</terminalName><lastCommWithServer>1443816316057</lastCommWithServer><lat>38.912719</lat><long>-77.022155</long><installed>true</installed><locked>false</locked><installDate>0</installDate><removalDate></removalDate><temporary>false</temporary><public>true</public><nbBikes>12</nbBikes><nbEmptyDocks>3</nbEmptyDocks><latestUpdateTime>1443814543793</latestUpdateTime></station><station><id>146</id><name>9th &amp; Upshur St NW</name><terminalName>31404</terminalName><lastCommWithServer>1443816315024</lastCommWithServer><lat>38.9418</lat><long>-77.0251</long><installed>true</installed><locked>false</locked><installDate>0</installDate><removalDate></removalDate><temporary>false</temporary><public>true</public><nbBikes>10</nbBikes><nbEmptyDocks>4</nbEmptyDocks><latestUpdateTime>1443794968268</latestUpdateTime></station><station><id>147</id><name>1st &amp; Rhode Island Ave NW</name><terminalName>31506</terminalName><lastCommWithServer>1443816228048</lastCommWithServer><lat>38.915417</lat><long>-77.012289</long><installed>true</installed><locked>false</locked><installDate>0</installDate><removalDate></removalDate><temporary>false</temporary><public>true</public><nbBikes>9</nbBikes><nbEmptyDocks>5</nbEmptyDocks><latestUpdateTime>1443809186265</latestUpdateTime></station><station><id>148</id><name>Columbia Rd &amp; Georgia Ave NW</name><terminalName>31115</terminalName><lastCommWithServer>1443816307728</lastCommWithServer><lat>38.928156</lat><long>-77.02344</long><installed>true</installed><locked>false</locked><installDate>0</installDate><removalDate></removalDate><temporary>false</temporary><public>true</public><nbBikes>10</nbBikes><nbEmptyDocks>9</nbEmptyDocks><latestUpdateTime>1443815807618</latestUpdateTime></station><station><id>149</id><name>California St &amp; Florida Ave NW</name><terminalName>31116</terminalName><lastCommWithServer>1443816334150</lastCommWithServer><lat>38.917761</lat><long>-77.04062</long><installed>true</installed><locked>false</locked><installDate>0</installDate><removalDate></removalDate><temporary>false</temporary><public>true</public><nbBikes>11</nbBikes><nbEmptyDocks>8</nbEmptyDocks><latestUpdateTime>1443816333593</latestUpdateTime></station><station><id>150</id><name>Benning Rd &amp; East Capitol St NE / Benning Rd Metro</name><terminalName>31707</terminalName><lastCommWithServer>1443816280094</lastCommWithServer><lat>38.889935</lat><long>-76.93723</long><installed>true</installed><locked>false</locked><installDate>0</installDate><removalDate></removalDate><temporary>false</temporary><public>true</public><nbBikes>9</nbBikes><nbEmptyDocks>10</nbEmptyDocks><latestUpdateTime>1443793713452</latestUpdateTime></station><station><id>151</id><name>3000 Connecticut Ave NW / National Zoo</name><terminalName>31307</terminalName><lastCommWithServer>1443816308286</lastCommWithServer><lat>38.930282</lat><long>-77.055599</long><installed>true</installed><locked>false</locked><installDate>0</installDate><removalDate></removalDate><temporary>false</temporary><public>true</public><nbBikes>12</nbBikes><nbEmptyDocks>3</nbEmptyDocks><latestUpdateTime>1443813401996</latestUpdateTime></station><station><id>152</id><name>Anacostia Ave &amp; Benning Rd NE / River Terrace </name><terminalName>31708</terminalName><lastCommWithServer>1443816289004</lastCommWithServer><lat>38.896544</lat><long>-76.96012</long><installed>true</installed><locked>false</locked><installDate>0</installDate><removalDate></removalDate><temporary>false</temporary><public>true</public><nbBikes>7</nbBikes><nbEmptyDocks>8</nbEmptyDocks><latestUpdateTime>1443792201065</latestUpdateTime></station><station><id>153</id><name>M St &amp; Pennsylvania Ave NW</name><terminalName>31246</terminalName><lastCommWithServer>1443816212590</lastCommWithServer><lat>38.905126</lat><long>-77.056887</long><installed>true</installed><locked>false</locked><installDate>0</installDate><removalDate></removalDate><temporary>false</temporary><public>true</public><nbBikes>7</nbBikes><nbEmptyDocks>12</nbEmptyDocks><latestUpdateTime>1443808314890</latestUpdateTime></station><station><id>154</id><name>15th St &amp; Massachusetts Ave SE</name><terminalName>31626</terminalName><lastCommWithServer>1443816299209</lastCommWithServer><lat>38.88732</lat><long>-76.983569</long><installed>true</installed><locked>false</locked><installDate>0</installDate><removalDate></removalDate><temporary>false</temporary><public>true</public><nbBikes>9</nbBikes><nbEmptyDocks>6</nbEmptyDocks><latestUpdateTime>1443816178805</latestUpdateTime></station><station><id>155</id><name>Congress Heights Metro</name><terminalName>31806</terminalName><lastCommWithServer>1443816232328</lastCommWithServer><lat>38.844711</lat><long>-76.987823</long><installed>true</installed><locked>false</locked><installDate>0</installDate><removalDate></removalDate><temporary>false</temporary><public>true</public><nbBikes>4</nbBikes><nbEmptyDocks>11</nbEmptyDocks><latestUpdateTime>1443802154883</latestUpdateTime></station><station><id>156</id><name>N Quincy St &amp; Glebe Rd</name><terminalName>31035</terminalName><lastCommWithServer>1443816225326</lastCommWithServer><lat>38.876393</lat><long>-77.107735</long><installed>true</installed><locked>false</locked><installDate>0</installDate><removalDate></removalDate><temporary>false</temporary><public>true</public><nbBikes>5</nbBikes><nbEmptyDocks>5</nbEmptyDocks><latestUpdateTime>1443790027896</latestUpdateTime></station><station><id>157</id><name>Wilson Blvd &amp; N Oakland St</name><terminalName>31033</terminalName><lastCommWithServer>1443816295418</lastCommWithServer><lat>38.8815</lat><long>-77.10396</long><installed>true</installed><locked>false</locked><installDate>0</installDate><removalDate></removalDate><temporary>false</temporary><public>true</public><nbBikes>2</nbBikes><nbEmptyDocks>9</nbEmptyDocks><latestUpdateTime>1443784805794</latestUpdateTime></station><station><id>158</id><name>N Veitch  &amp; 20th St N</name><terminalName>31029</terminalName><lastCommWithServer>1443816257866</lastCommWithServer><lat>38.896923</lat><long>-77.086502</long><installed>true</installed><locked>false</locked><installDate>0</installDate><removalDate></removalDate><temporary>false</temporary><public>true</public><nbBikes>6</nbBikes><nbEmptyDocks>7</nbEmptyDocks><latestUpdateTime>1443786153235</latestUpdateTime></station><station><id>159</id><name>11th &amp; K St NW</name><terminalName>31263</terminalName><lastCommWithServer>1443816283263</lastCommWithServer><lat>38.90268</lat><long>-77.02674</long><installed>true</installed><locked>false</locked><installDate>0</installDate><removalDate></removalDate><temporary>false</temporary><public>true</public><nbBikes>8</nbBikes><nbEmptyDocks>9</nbEmptyDocks><latestUpdateTime>1443810560854</latestUpdateTime></station><station><id>160</id><name>Fairfax Dr &amp; Wilson Blvd</name><terminalName>31023</terminalName><lastCommWithServer>1443816248813</lastCommWithServer><lat>38.885801</lat><long>-77.097745</long><installed>true</installed><locked>false</locked><installDate>0</installDate><removalDate></removalDate><temporary>false</temporary><public>true</public><nbBikes>7</nbBikes><nbEmptyDocks>3</nbEmptyDocks><latestUpdateTime>1443813687719</latestUpdateTime></station><station><id>161</id><name>Key Blvd &amp; N Quinn St</name><terminalName>31027</terminalName><lastCommWithServer>1443816210538</lastCommWithServer><lat>38.896015</lat><long>-77.078107</long><installed>true</installed><locked>false</locked><installDate>0</installDate><removalDate></removalDate><temporary>false</temporary><public>true</public><nbBikes>8</nbBikes><nbEmptyDocks>3</nbEmptyDocks><latestUpdateTime>1443776610464</latestUpdateTime></station><station><id>162</id><name>1st &amp; K St SE</name><terminalName>31628</terminalName><lastCommWithServer>1443816262727</lastCommWithServer><lat>38.87861</lat><long>-77.006004</long><installed>true</installed><locked>false</locked><installDate>0</installDate><removalDate></removalDate><temporary>false</temporary><public>true</public><nbBikes>8</nbBikes><nbEmptyDocks>7</nbEmptyDocks><latestUpdateTime>1443814377299</latestUpdateTime></station><station><id>163</id><name>39th &amp; Calvert St NW / Stoddert</name><terminalName>31306</terminalName><lastCommWithServer>1443816147929</lastCommWithServer><lat>38.922649</lat><long>-77.077271</long><installed>true</installed><locked>false</locked><installDate>0</installDate><removalDate></removalDate><temporary>false</temporary><public>true</public><nbBikes>14</nbBikes><nbEmptyDocks>5</nbEmptyDocks><latestUpdateTime>1443809808798</latestUpdateTime></station><station><id>164</id><name>1st &amp; Washington Hospital Center NW</name><terminalName>31507</terminalName><lastCommWithServer>1443816282556</lastCommWithServer><lat>38.928743</lat><long>-77.012457</long><installed>true</installed><locked>false</locked><installDate>0</installDate><removalDate></removalDate><temporary>false</temporary><public>true</public><nbBikes>5</nbBikes><nbEmptyDocks>10</nbEmptyDocks><latestUpdateTime>1443813704359</latestUpdateTime></station><station><id>165</id><name>Virginia Square Metro / N Monroe St &amp; 9th St N</name><terminalName>31024</terminalName><lastCommWithServer>1443816266474</lastCommWithServer><lat>38.882788</lat><long>-77.103148</long><installed>true</installed><locked>false</locked><installDate>0</installDate><removalDate></removalDate><temporary>false</temporary><public>true</public><nbBikes>4</nbBikes><nbEmptyDocks>14</nbEmptyDocks><latestUpdateTime>1443798972824</latestUpdateTime></station><station><id>166</id><name>Central Library / N Quincy St &amp; 10th St N</name><terminalName>31025</terminalName><lastCommWithServer>1443816264756</lastCommWithServer><lat>38.88397</lat><long>-77.10783</long><installed>true</installed><locked>false</locked><installDate>0</installDate><removalDate></removalDate><temporary>false</temporary><public>true</public><nbBikes>5</nbBikes><nbEmptyDocks>6</nbEmptyDocks><latestUpdateTime>1443798802767</latestUpdateTime></station><station><id>167</id><name>Washington Blvd &amp; 10th St N</name><terminalName>31026</terminalName><lastCommWithServer>1443816225156</lastCommWithServer><lat>38.884734</lat><long>-77.093485</long><installed>true</installed><locked>false</locked><installDate>0</installDate><removalDate></removalDate><temporary>false</temporary><public>true</public><nbBikes>2</nbBikes><nbEmptyDocks>13</nbEmptyDocks><latestUpdateTime>1443776472263</latestUpdateTime></station><station><id>168</id><name>Jefferson Dr &amp; 14th St SW</name><terminalName>31247</terminalName><lastCommWithServer>1443816250683</lastCommWithServer><lat>38.888553</lat><long>-77.032429</long><installed>true</installed><locked>false</locked><installDate>0</installDate><removalDate></removalDate><temporary>false</temporary><public>true</public><nbBikes>2</nbBikes><nbEmptyDocks>21</nbEmptyDocks><latestUpdateTime>1443815499215</latestUpdateTime></station><station><id>169</id><name>Smithsonian / Jefferson Dr &amp; 12th St SW</name><terminalName>31248</terminalName><lastCommWithServer>1443816255725</lastCommWithServer><lat>38.888767</lat><long>-77.02858</long><installed>true</installed><locked>false</locked><installDate>0</installDate><removalDate></removalDate><temporary>false</temporary><public>true</public><nbBikes>2</nbBikes><nbEmptyDocks>21</nbEmptyDocks><latestUpdateTime>1443807508171</latestUpdateTime></station><station><id>170</id><name>George Mason Dr &amp; Wilson Blvd</name><terminalName>31036</terminalName><lastCommWithServer>1443816227316</lastCommWithServer><lat>38.87887</lat><long>-77.1207</long><installed>true</installed><locked>false</locked><installDate>0</installDate><removalDate></removalDate><temporary>false</temporary><public>true</public><nbBikes>7</nbBikes><nbEmptyDocks>8</nbEmptyDocks><latestUpdateTime>1443794842356</latestUpdateTime></station><station><id>171</id><name>6th St &amp; Indiana Ave NW</name><terminalName>31264</terminalName><lastCommWithServer>1443816299371</lastCommWithServer><lat>38.894573</lat><long>-77.01994</long><installed>true</installed><locked>false</locked><installDate>0</installDate><removalDate></removalDate><temporary>false</temporary><public>true</public><nbBikes>8</nbBikes><nbEmptyDocks>11</nbEmptyDocks><latestUpdateTime>1443808570881</latestUpdateTime></station><station><id>172</id><name>N Veitch &amp; Key Blvd</name><terminalName>31028</terminalName><lastCommWithServer>1443816265003</lastCommWithServer><lat>38.893241</lat><long>-77.086045</long><installed>true</installed><locked>false</locked><installDate>0</installDate><removalDate></removalDate><temporary>false</temporary><public>true</public><nbBikes>6</nbBikes><nbEmptyDocks>5</nbEmptyDocks><latestUpdateTime>1443799738670</latestUpdateTime></station><station><id>173</id><name>N Adams St &amp; Lee Hwy</name><terminalName>31030</terminalName><lastCommWithServer>1443816295667</lastCommWithServer><lat>38.89593</lat><long>-77.089006</long><installed>true</installed><locked>false</locked><installDate>0</installDate><removalDate></removalDate><temporary>false</temporary><public>true</public><nbBikes>17</nbBikes><nbEmptyDocks>5</nbEmptyDocks><latestUpdateTime>1443800072813</latestUpdateTime></station><station><id>174</id><name>15th &amp; N Scott St</name><terminalName>31031</terminalName><lastCommWithServer>1443816202597</lastCommWithServer><lat>38.89054</lat><long>-77.08095</long><installed>true</installed><locked>false</locked><installDate>0</installDate><removalDate></removalDate><temporary>false</temporary><public>true</public><nbBikes>4</nbBikes><nbEmptyDocks>7</nbEmptyDocks><latestUpdateTime>1443789142362</latestUpdateTime></station><station><id>175</id><name>Washington Blvd &amp; 7th St N</name><terminalName>31032</terminalName><lastCommWithServer>1443816303529</lastCommWithServer><lat>38.880834</lat><long>-77.091129</long><installed>true</installed><locked>false</locked><installDate>0</installDate><removalDate></removalDate><temporary>false</temporary><public>true</public><nbBikes>7</nbBikes><nbEmptyDocks>4</nbEmptyDocks><latestUpdateTime>1443806070727</latestUpdateTime></station><station><id>176</id><name>Ballston Metro / N Stuart &amp; 9th St N</name><terminalName>31037</terminalName><lastCommWithServer>1443816261315</lastCommWithServer><lat>38.881044</lat><long>-77.111768</long><installed>true</installed><locked>false</locked><installDate>0</installDate><removalDate></removalDate><temporary>false</temporary><public>true</public><nbBikes>7</nbBikes><nbEmptyDocks>12</nbEmptyDocks><latestUpdateTime>1443795107576</latestUpdateTime></station><station><id>177</id><name>N Randolph St &amp; Fairfax Dr</name><terminalName>31034</terminalName><lastCommWithServer>1443816312835</lastCommWithServer><lat>38.882629</lat><long>-77.109366</long><installed>true</installed><locked>false</locked><installDate>0</installDate><removalDate></removalDate><temporary>false</temporary><public>true</public><nbBikes>8</nbBikes><nbEmptyDocks>3</nbEmptyDocks><latestUpdateTime>1443791710928</latestUpdateTime></station><station><id>178</id><name>Jefferson Memorial</name><terminalName>31249</terminalName><lastCommWithServer>1443816296997</lastCommWithServer><lat>38.879819</lat><long>-77.037413</long><installed>true</installed><locked>false</locked><installDate>0</installDate><removalDate></removalDate><temporary>false</temporary><public>true</public><nbBikes>0</nbBikes><nbEmptyDocks>22</nbEmptyDocks><latestUpdateTime>1443812759250</latestUpdateTime></station><station><id>179</id><name>Good Hope Rd &amp; 14th St SE</name><terminalName>31803</terminalName><lastCommWithServer>1443816201736</lastCommWithServer><lat>38.866611</lat><long>-76.985238</long><installed>true</installed><locked>false</locked><installDate>0</installDate><removalDate></removalDate><temporary>false</temporary><public>true</public><nbBikes>6</nbBikes><nbEmptyDocks>9</nbEmptyDocks><latestUpdateTime>1443799639178</latestUpdateTime></station><station><id>180</id><name>Glebe Rd &amp; 11th St N</name><terminalName>31038</terminalName><lastCommWithServer>1443816324775</lastCommWithServer><lat>38.883921</lat><long>-77.116817</long><installed>true</installed><locked>false</locked><installDate>0</installDate><removalDate></removalDate><temporary>false</temporary><public>true</public><nbBikes>2</nbBikes><nbEmptyDocks>9</nbEmptyDocks><latestUpdateTime>1443776517097</latestUpdateTime></station><station><id>181</id><name>N Quincy St &amp; Wilson Blvd</name><terminalName>31039</terminalName><lastCommWithServer>1443816244047</lastCommWithServer><lat>38.880151</lat><long>-77.107673</long><installed>true</installed><locked>false</locked><installDate>0</installDate><removalDate></removalDate><temporary>false</temporary><public>true</public><nbBikes>11</nbBikes><nbEmptyDocks>4</nbEmptyDocks><latestUpdateTime>1443801974227</latestUpdateTime></station><station><id>182</id><name>Fairfax Dr &amp; Kenmore St</name><terminalName>31040</terminalName><lastCommWithServer>1443816249835</lastCommWithServer><lat>38.884616</lat><long>-77.10108</long><installed>true</installed><locked>false</locked><installDate>0</installDate><removalDate></removalDate><temporary>false</temporary><public>true</public><nbBikes>3</nbBikes><nbEmptyDocks>8</nbEmptyDocks><latestUpdateTime>1443805722078</latestUpdateTime></station><station><id>183</id><name>Gallaudet / 8th St &amp; Florida Ave NE</name><terminalName>31508</terminalName><lastCommWithServer>1443816236104</lastCommWithServer><lat>38.90509</lat><long>-76.9941</long><installed>true</installed><locked>false</locked><installDate>0</installDate><removalDate></removalDate><temporary>false</temporary><public>true</public><nbBikes>17</nbBikes><nbEmptyDocks>1</nbEmptyDocks><latestUpdateTime>1443813718210</latestUpdateTime></station><station><id>185</id><name>20th &amp; L St NW</name><terminalName>31250</terminalName><lastCommWithServer>1443816303065</lastCommWithServer><lat>38.903584</lat><long>-77.044789</long><installed>true</installed><locked>false</locked><installDate>0</installDate><removalDate></removalDate><temporary>false</temporary><public>true</public><nbBikes>3</nbBikes><nbEmptyDocks>16</nbEmptyDocks><latestUpdateTime>1443813514999</latestUpdateTime></station><station><id>186</id><name>12th &amp; L St NW</name><terminalName>31251</terminalName><lastCommWithServer>1443816258006</lastCommWithServer><lat>38.903819</lat><long>-77.0284</long><installed>true</installed><locked>false</locked><installDate>0</installDate><removalDate></removalDate><temporary>false</temporary><public>true</public><nbBikes>7</nbBikes><nbEmptyDocks>9</nbEmptyDocks><latestUpdateTime>1443811310988</latestUpdateTime></station><station><id>187</id><name>21st St &amp; Pennsylvania Ave NW</name><terminalName>31252</terminalName><lastCommWithServer>1443816174625</lastCommWithServer><lat>38.901539</lat><long>-77.046564</long><installed>true</installed><locked>false</locked><installDate>0</installDate><removalDate></removalDate><temporary>false</temporary><public>true</public><nbBikes>7</nbBikes><nbEmptyDocks>12</nbEmptyDocks><latestUpdateTime>1443806278745</latestUpdateTime></station><station><id>188</id><name>19th &amp; K St NW</name><terminalName>31253</terminalName><lastCommWithServer>1443816287345</lastCommWithServer><lat>38.902204</lat><long>-77.04337</long><installed>true</installed><locked>false</locked><installDate>0</installDate><removalDate></removalDate><temporary>false</temporary><public>true</public><nbBikes>12</nbBikes><nbEmptyDocks>10</nbEmptyDocks><latestUpdateTime>1443814193458</latestUpdateTime></station><station><id>189</id><name>Prince St &amp; Union St</name><terminalName>31041</terminalName><lastCommWithServer>1443816248877</lastCommWithServer><lat>38.803124</lat><long>-77.040363</long><installed>true</installed><locked>false</locked><installDate>0</installDate><removalDate></removalDate><temporary>false</temporary><public>true</public><nbBikes>11</nbBikes><nbEmptyDocks>8</nbEmptyDocks><latestUpdateTime>1443813705030</latestUpdateTime></station><station><id>190</id><name>Market Square / King St &amp; Royal St</name><terminalName>31042</terminalName><lastCommWithServer>1443816247433</lastCommWithServer><lat>38.804718</lat><long>-77.043363</long><installed>true</installed><locked>false</locked><installDate>0</installDate><removalDate></removalDate><temporary>false</temporary><public>true</public><nbBikes>8</nbBikes><nbEmptyDocks>6</nbEmptyDocks><latestUpdateTime>1443786843396</latestUpdateTime></station><station><id>191</id><name>Saint Asaph St &amp; Pendleton  St</name><terminalName>31043</terminalName><lastCommWithServer>1443816309460</lastCommWithServer><lat>38.810743</lat><long>-77.044664</long><installed>true</installed><locked>false</locked><installDate>0</installDate><removalDate></removalDate><temporary>false</temporary><public>true</public><nbBikes>8</nbBikes><nbEmptyDocks>6</nbEmptyDocks><latestUpdateTime>1443807369815</latestUpdateTime></station><station><id>192</id><name>King St &amp; Patrick St</name><terminalName>31044</terminalName><lastCommWithServer>1443816253771</lastCommWithServer><lat>38.805317</lat><long>-77.049883</long><installed>true</installed><locked>false</locked><installDate>0</installDate><removalDate></removalDate><temporary>false</temporary><public>true</public><nbBikes>8</nbBikes><nbEmptyDocks>6</nbEmptyDocks><latestUpdateTime>1443788384507</latestUpdateTime></station><station><id>193</id><name>15th &amp; K St NW</name><terminalName>31254</terminalName><lastCommWithServer>1443816316607</lastCommWithServer><lat>38.902</lat><long>-77.03353</long><installed>true</installed><locked>false</locked><installDate>0</installDate><removalDate></removalDate><temporary>false</temporary><public>true</public><nbBikes>14</nbBikes><nbEmptyDocks>11</nbEmptyDocks><latestUpdateTime>1443815701142</latestUpdateTime></station><station><id>194</id><name>Commerce St &amp; Fayette St</name><terminalName>31045</terminalName><lastCommWithServer>1443816215790</lastCommWithServer><lat>38.805648</lat><long>-77.05293</long><installed>true</installed><locked>false</locked><installDate>0</installDate><removalDate></removalDate><temporary>false</temporary><public>true</public><nbBikes>9</nbBikes><nbEmptyDocks>6</nbEmptyDocks><latestUpdateTime>1443804435171</latestUpdateTime></station><station><id>195</id><name>Henry St &amp; Pendleton St</name><terminalName>31046</terminalName><lastCommWithServer>1443816277578</lastCommWithServer><lat>38.811456</lat><long>-77.050276</long><installed>true</installed><locked>false</locked><installDate>0</installDate><removalDate></removalDate><temporary>false</temporary><public>true</public><nbBikes>10</nbBikes><nbEmptyDocks>7</nbEmptyDocks><latestUpdateTime>1443806793861</latestUpdateTime></station><station><id>196</id><name>Braddock Rd Metro</name><terminalName>31047</terminalName><lastCommWithServer>1443816264084</lastCommWithServer><lat>38.814577</lat><long>-77.052808</long><installed>true</installed><locked>false</locked><installDate>0</installDate><removalDate></removalDate><temporary>false</temporary><public>true</public><nbBikes>10</nbBikes><nbEmptyDocks>9</nbEmptyDocks><latestUpdateTime>1443808251592</latestUpdateTime></station><station><id>197</id><name>King St Metro</name><terminalName>31048</terminalName><lastCommWithServer>1443816271790</lastCommWithServer><lat>38.805767</lat><long>-77.06072</long><installed>true</installed><locked>false</locked><installDate>0</installDate><removalDate></removalDate><temporary>false</temporary><public>true</public><nbBikes>15</nbBikes><nbEmptyDocks>8</nbEmptyDocks><latestUpdateTime>1443800156892</latestUpdateTime></station><station><id>198</id><name>24th &amp; N St NW</name><terminalName>31255</terminalName><lastCommWithServer>1443816323012</lastCommWithServer><lat>38.9066</lat><long>-77.05152</long><installed>true</installed><locked>false</locked><installDate>0</installDate><removalDate></removalDate><temporary>false</temporary><public>true</public><nbBikes>9</nbBikes><nbEmptyDocks>5</nbEmptyDocks><latestUpdateTime>1443807470071</latestUpdateTime></station><station><id>199</id><name>10th &amp; E St NW</name><terminalName>31256</terminalName><lastCommWithServer>1443816213181</lastCommWithServer><lat>38.895914</lat><long>-77.026064</long><installed>true</installed><locked>false</locked><installDate>0</installDate><removalDate></removalDate><temporary>false</temporary><public>true</public><nbBikes>4</nbBikes><nbEmptyDocks>11</nbEmptyDocks><latestUpdateTime>1443814239311</latestUpdateTime></station><station><id>200</id><name>22nd &amp; I St NW / Foggy Bottom</name><terminalName>31257</terminalName><lastCommWithServer>1443816306750</lastCommWithServer><lat>38.90088</lat><long>-77.048911</long><installed>true</installed><locked>false</locked><installDate>0</installDate><removalDate></removalDate><temporary>false</temporary><public>true</public><nbBikes>0</nbBikes><nbEmptyDocks>15</nbEmptyDocks><latestUpdateTime>1443807499281</latestUpdateTime></station><station><id>201</id><name>Utah St &amp; 11th St N </name><terminalName>31049</terminalName><lastCommWithServer>1443816299430</lastCommWithServer><lat>38.883669</lat><long>-77.113905</long><installed>true</installed><locked>false</locked><installDate>0</installDate><removalDate></removalDate><temporary>false</temporary><public>true</public><nbBikes>4</nbBikes><nbEmptyDocks>7</nbEmptyDocks><latestUpdateTime>1443788445054</latestUpdateTime></station><station><id>202</id><name>Barton St &amp; 10th St N</name><terminalName>31050</terminalName><lastCommWithServer>1443816306685</lastCommWithServer><lat>38.884961</lat><long>-77.08777</long><installed>true</installed><locked>false</locked><installDate>0</installDate><removalDate></removalDate><temporary>false</temporary><public>true</public><nbBikes>9</nbBikes><nbEmptyDocks>2</nbEmptyDocks><latestUpdateTime>1443776467920</latestUpdateTime></station><station><id>203</id><name>Arlington Blvd &amp; N Queen St</name><terminalName>31051</terminalName><lastCommWithServer>1443816197333</lastCommWithServer><lat>38.889365</lat><long>-77.077294</long><installed>true</installed><locked>false</locked><installDate>0</installDate><removalDate></removalDate><temporary>false</temporary><public>true</public><nbBikes>8</nbBikes><nbEmptyDocks>3</nbEmptyDocks><latestUpdateTime>1443815221146</latestUpdateTime></station><station><id>204</id><name>Lincoln Memorial</name><terminalName>31258</terminalName><lastCommWithServer>1443816287277</lastCommWithServer><lat>38.888251</lat><long>-77.049426</long><installed>true</installed><locked>false</locked><installDate>0</installDate><removalDate></removalDate><temporary>false</temporary><public>true</public><nbBikes>6</nbBikes><nbEmptyDocks>18</nbEmptyDocks><latestUpdateTime>1443813288594</latestUpdateTime></station><station><id>206</id><name>20th St &amp; Virginia Ave NW</name><terminalName>31259</terminalName><lastCommWithServer>1443816327719</lastCommWithServer><lat>38.894722</lat><long>-77.045128</long><installed>true</installed><locked>false</locked><installDate>0</installDate><removalDate></removalDate><temporary>false</temporary><public>true</public><nbBikes>4</nbBikes><nbEmptyDocks>11</nbEmptyDocks><latestUpdateTime>1443789966171</latestUpdateTime></station><station><id>207</id><name>5th St &amp; Massachusetts Ave NW</name><terminalName>31265</terminalName><lastCommWithServer>1443816251956</lastCommWithServer><lat>38.90093</lat><long>-77.018677</long><installed>true</installed><locked>false</locked><installDate>0</installDate><removalDate></removalDate><temporary>false</temporary><public>true</public><nbBikes>14</nbBikes><nbEmptyDocks>5</nbEmptyDocks><latestUpdateTime>1443809043244</latestUpdateTime></station><station><id>208</id><name>39th &amp; Veazey St NW</name><terminalName>31308</terminalName><lastCommWithServer>1443816196623</lastCommWithServer><lat>38.943837</lat><long>-77.077078</long><installed>true</installed><locked>false</locked><installDate>0</installDate><removalDate></removalDate><temporary>false</temporary><public>true</public><nbBikes>10</nbBikes><nbEmptyDocks>4</nbEmptyDocks><latestUpdateTime>1443815011506</latestUpdateTime></station><station><id>209</id><name>Fessenden St &amp; Wisconsin Ave NW</name><terminalName>31309</terminalName><lastCommWithServer>1443816338035</lastCommWithServer><lat>38.954812</lat><long>-77.082426</long><installed>true</installed><locked>false</locked><installDate>0</installDate><removalDate></removalDate><temporary>false</temporary><public>true</public><nbBikes>10</nbBikes><nbEmptyDocks>5</nbEmptyDocks><latestUpdateTime>1443794109891</latestUpdateTime></station><station><id>210</id><name>M St &amp; Delaware Ave NE</name><terminalName>31627</terminalName><lastCommWithServer>1443816325078</lastCommWithServer><lat>38.905707</lat><long>-77.003041</long><installed>true</installed><locked>false</locked><installDate>0</installDate><removalDate></removalDate><temporary>false</temporary><public>true</public><nbBikes>11</nbBikes><nbEmptyDocks>7</nbEmptyDocks><latestUpdateTime>1443815966871</latestUpdateTime></station><station><id>211</id><name>Columbia Pike &amp; S Courthouse Rd</name><terminalName>31053</terminalName><lastCommWithServer>1443816214087</lastCommWithServer><lat>38.863833</lat><long>-77.080319</long><installed>true</installed><locked>false</locked><installDate>0</installDate><removalDate></removalDate><temporary>false</temporary><public>true</public><nbBikes>10</nbBikes><nbEmptyDocks>5</nbEmptyDocks><latestUpdateTime>1443776426066</latestUpdateTime></station><station><id>212</id><name>Walter Reed Community Center / Walter Reed Dr &amp; 16th St S</name><terminalName>31054</terminalName><lastCommWithServer>1443816319098</lastCommWithServer><lat>38.857803</lat><long>-77.086733</long><installed>true</installed><locked>false</locked><installDate>0</installDate><removalDate></removalDate><temporary>false</temporary><public>true</public><nbBikes>3</nbBikes><nbEmptyDocks>8</nbEmptyDocks><latestUpdateTime>1443786891542</latestUpdateTime></station><station><id>213</id><name>28th St S &amp; S Meade St</name><terminalName>31055</terminalName><lastCommWithServer>1443816287899</lastCommWithServer><lat>38.846222</lat><long>-77.069275</long><installed>true</installed><locked>false</locked><installDate>0</installDate><removalDate></removalDate><temporary>false</temporary><public>true</public><nbBikes>7</nbBikes><nbEmptyDocks>7</nbEmptyDocks><latestUpdateTime>1443810076447</latestUpdateTime></station><station><id>214</id><name>18th St &amp; Wyoming Ave NW</name><terminalName>31114</terminalName><lastCommWithServer>1443816323140</lastCommWithServer><lat>38.918809</lat><long>-77.041571</long><installed>true</installed><locked>false</locked><installDate>0</installDate><removalDate></removalDate><temporary>false</temporary><public>true</public><nbBikes>11</nbBikes><nbEmptyDocks>12</nbEmptyDocks><latestUpdateTime>1443815978457</latestUpdateTime></station><station><id>215</id><name>5th &amp; Kennedy St NW</name><terminalName>31403</terminalName><lastCommWithServer>1443816314480</lastCommWithServer><lat>38.956595</lat><long>-77.019815</long><installed>true</installed><locked>false</locked><installDate>0</installDate><removalDate></removalDate><temporary>false</temporary><public>true</public><nbBikes>9</nbBikes><nbEmptyDocks>6</nbEmptyDocks><latestUpdateTime>1443812251351</latestUpdateTime></station><station><id>216</id><name>Georgia Ave &amp; Emerson St NW</name><terminalName>31405</terminalName><lastCommWithServer>1443816277329</lastCommWithServer><lat>38.949662</lat><long>-77.027333</long><installed>true</installed><locked>false</locked><installDate>0</installDate><removalDate></removalDate><temporary>false</temporary><public>true</public><nbBikes>11</nbBikes><nbEmptyDocks>7</nbEmptyDocks><latestUpdateTime>1443813186142</latestUpdateTime></station><station><id>217</id><name>14th &amp; Upshur St NW</name><terminalName>31406</terminalName><lastCommWithServer>1443816211483</lastCommWithServer><lat>38.942016</lat><long>-77.032652</long><installed>true</installed><locked>false</locked><installDate>0</installDate><removalDate></removalDate><temporary>false</temporary><public>true</public><nbBikes>14</nbBikes><nbEmptyDocks>5</nbEmptyDocks><latestUpdateTime>1443787926737</latestUpdateTime></station><station><id>218</id><name>14th St &amp; Colorado Ave NW</name><terminalName>31407</terminalName><lastCommWithServer>1443816237483</lastCommWithServer><lat>38.956432</lat><long>-77.032947</long><installed>true</installed><locked>false</locked><installDate>0</installDate><removalDate></removalDate><temporary>false</temporary><public>true</public><nbBikes>11</nbBikes><nbEmptyDocks>8</nbEmptyDocks><latestUpdateTime>1443792238262</latestUpdateTime></station><station><id>219</id><name>S Troy St &amp; 26th St S</name><terminalName>31056</terminalName><lastCommWithServer>1443816290557</lastCommWithServer><lat>38.847977</lat><long>-77.075104</long><installed>true</installed><locked>false</locked><installDate>0</installDate><removalDate></removalDate><temporary>false</temporary><public>true</public><nbBikes>4</nbBikes><nbEmptyDocks>7</nbEmptyDocks><latestUpdateTime>1443776559952</latestUpdateTime></station><station><id>220</id><name>S Four Mile Run Dr &amp; S Shirlington Rd</name><terminalName>31057</terminalName><lastCommWithServer>1443816294005</lastCommWithServer><lat>38.8444</lat><long>-77.085931</long><installed>true</installed><locked>false</locked><installDate>0</installDate><removalDate></removalDate><temporary>false</temporary><public>true</public><nbBikes>4</nbBikes><nbEmptyDocks>7</nbEmptyDocks><latestUpdateTime>1443776496489</latestUpdateTime></station><station><id>221</id><name>S Oakland St &amp; Columbia Pike</name><terminalName>31058</terminalName><lastCommWithServer>1443816179699</lastCommWithServer><lat>38.860789</lat><long>-77.09586</long><installed>true</installed><locked>false</locked><installDate>0</installDate><removalDate></removalDate><temporary>false</temporary><public>true</public><nbBikes>6</nbBikes><nbEmptyDocks>5</nbEmptyDocks><latestUpdateTime>1443776467488</latestUpdateTime></station><station><id>222</id><name>S Four Mile Run &amp; Walter Reed Dr</name><terminalName>31059</terminalName><lastCommWithServer>1443816309104</lastCommWithServer><lat>38.84736</lat><long>-77.095431</long><installed>true</installed><locked>false</locked><installDate>0</installDate><removalDate></removalDate><temporary>false</temporary><public>true</public><nbBikes>2</nbBikes><nbEmptyDocks>9</nbEmptyDocks><latestUpdateTime>1443804103206</latestUpdateTime></station><station><id>223</id><name>S Arlington Mill Dr &amp; Campbell Ave</name><terminalName>31060</terminalName><lastCommWithServer>1443816266846</lastCommWithServer><lat>38.84232</lat><long>-77.089555</long><installed>true</installed><locked>false</locked><installDate>0</installDate><removalDate></removalDate><temporary>false</temporary><public>true</public><nbBikes>11</nbBikes><nbEmptyDocks>3</nbEmptyDocks><latestUpdateTime>1443793726939</latestUpdateTime></station><station><id>224</id><name>S Kenmore &amp; 24th St S</name><terminalName>31061</terminalName><lastCommWithServer>1443816175519</lastCommWithServer><lat>38.848454</lat><long>-77.084918</long><installed>true</installed><locked>false</locked><installDate>0</installDate><removalDate></removalDate><temporary>false</temporary><public>true</public><nbBikes>7</nbBikes><nbEmptyDocks>4</nbEmptyDocks><latestUpdateTime>1443776585704</latestUpdateTime></station><station><id>225</id><name>13th St &amp; Eastern Ave</name><terminalName>32006</terminalName><lastCommWithServer>1443816310600</lastCommWithServer><lat>38.987</lat><long>-77.029417</long><installed>true</installed><locked>false</locked><installDate>0</installDate><removalDate></removalDate><temporary>false</temporary><public>true</public><nbBikes>7</nbBikes><nbEmptyDocks>8</nbEmptyDocks><latestUpdateTime>1443776559719</latestUpdateTime></station><station><id>226</id><name>Wisconsin Ave &amp; O St NW</name><terminalName>31312</terminalName><lastCommWithServer>1443816269356</lastCommWithServer><lat>38.90849</lat><long>-77.063586</long><installed>true</installed><locked>false</locked><installDate>0</installDate><removalDate></removalDate><temporary>false</temporary><public>true</public><nbBikes>3</nbBikes><nbEmptyDocks>16</nbEmptyDocks><latestUpdateTime>1443813626115</latestUpdateTime></station><station><id>227</id><name>S George Mason Dr &amp; 13th St S</name><terminalName>31062</terminalName><lastCommWithServer>1443816252497</lastCommWithServer><lat>38.854691</lat><long>-77.100555</long><installed>true</installed><locked>false</locked><installDate>0</installDate><removalDate></removalDate><temporary>false</temporary><public>true</public><nbBikes>4</nbBikes><nbEmptyDocks>7</nbEmptyDocks><latestUpdateTime>1443776566068</latestUpdateTime></station><station><id>228</id><name>Connecticut &amp; Nebraska Ave NW</name><terminalName>31310</terminalName><lastCommWithServer>1443816325873</lastCommWithServer><lat>38.955